{"type":"FeatureCollection", "features": [
{"type":"Feature","geometry":{"type":"Point","coordinates":[6.648423300000047,4.854237600000033]},"properties":{"Field1":13,"LGA":"Abua/Odual","Facility_I":13,"Name_of_Fa":"Adada HP","Longitude":6.6484233,"Latitude":4.8542376,"Facility_T":2,"Facility_d":"HealtHClinic (PHC)","LGA_count":1,"label":"AB1 - ADADA HP","newlabel":""}},
{"type":"Feature","geometry":{"type":"Point","coordinates":[6.687551400000075,4.801497700000027]},"properties":{"Field1":9,"LGA":"Abua/Odual","Facility_I":9,"Name_of_Fa":"Agada1 MPHC","Longitude":6.6875514,"Latitude":4.8014977,"Facility_T":3,"Facility_d":"Model Primary HealtHCentre (MPHC)","LGA_count":2,"label":"AB2 - AGADA1 MPHC","newlabel":""}},
{"type":"Feature","geometry":{"type":"Point","coordinates":[6.648340000000076,4.8628817000000595]},"properties":{"Field1":23,"LGA":"Abua/Odual","Facility_I":23,"Name_of_Fa":"Akani hp","Longitude":6.64834,"Latitude":4.8628817,"Facility_T":2,"Facility_d":"HealtHClinic (PHC)","LGA_count":3,"label":"AB3 - AKANI HP","newlabel":""}},
{"type":"Feature","geometry":{"type":"Point","coordinates":[6.588784000000032,4.945222200000046]},"properties":{"Field1":7,"LGA":"Abua/Odual","Facility_I":7,"Name_of_Fa":"Aminiowere HC","Longitude":6.588784,"Latitude":4.9452222,"Facility_T":2,"Facility_d":"HealtHClinic (PHC)","LGA_count":4,"label":"AB4 - AMINIOWERE HC","newlabel":""}},
{"type":"Feature","geometry":{"type":"Point","coordinates":[6.45853100000005,4.7306200000000445]},"properties":{"Field1":21,"LGA":"Abua/Odual","Facility_I":21,"Name_of_Fa":"Amuruto hp","Longitude":6.458531,"Latitude":4.73062,"Facility_T":2,"Facility_d":"HealtHClinic (PHC)","LGA_count":5,"label":"AB5 - AMURUTO HP","newlabel":""}},
{"type":"Feature","geometry":{"type":"Point","coordinates":[6.450810000000047,4.860577000000035]},"properties":{"Field1":8,"LGA":"Abua/Odual","Facility_I":8,"Name_of_Fa":"Anyu HP","Longitude":6.45081,"Latitude":4.860577,"Facility_T":2,"Facility_d":"HealtHClinic (PHC)","LGA_count":6,"label":"AB6 - ANYU HP","newlabel":""}},
{"type":"Feature","geometry":{"type":"Point","coordinates":[6.616483000000073,4.85982000000007]},"properties":{"Field1":6,"LGA":"Abua/Odual","Facility_I":6,"Name_of_Fa":"Arukwo HP","Longitude":6.616483,"Latitude":4.85982,"Facility_T":2,"Facility_d":"HealtHClinic (PHC)","LGA_count":7,"label":"AB7 - ARUKWO HP","newlabel":""}},
{"type":"Feature","geometry":{"type":"Point","coordinates":[6.644657000000052,4.846718000000067]},"properties":{"Field1":2,"LGA":"Abua/Odual","Facility_I":2,"Name_of_Fa":"Ayama HC","Longitude":6.644657,"Latitude":4.846718,"Facility_T":2,"Facility_d":"HealtHClinic (PHC)","LGA_count":8,"label":"AB8 - AYAMA HC","newlabel":""}},
{"type":"Feature","geometry":{"type":"Point","coordinates":[6.590456000000074,4.950059000000067]},"properties":{"Field1":24,"LGA":"Abua/Odual","Facility_I":24,"Name_of_Fa":"Cottage Hospital Aminigboko","Longitude":6.590456,"Latitude":4.950059,"Facility_T":2,"Facility_d":"HealtHClinic (PHC)","LGA_count":9,"label":"AB9 - COTTAGE HOSPITAL AMINIGBOKO","newlabel":""}},
{"type":"Feature","geometry":{"type":"Point","coordinates":[6.668493000000069,4.792750000000069]},"properties":{"Field1":3,"LGA":"Abua/Odual","Facility_I":3,"Name_of_Fa":"Egbolom HP","Longitude":6.668493,"Latitude":4.79275,"Facility_T":2,"Facility_d":"HealtHClinic (PHC)","LGA_count":10,"label":"AB10 - EGBOLOM HP","newlabel":""}},
{"type":"Feature","geometry":{"type":"Point","coordinates":[6.642205000000047,4.789454000000035]},"properties":{"Field1":18,"LGA":"Abua/Odual","Facility_I":18,"Name_of_Fa":"Elok HP","Longitude":6.642205,"Latitude":4.789454,"Facility_T":2,"Facility_d":"HealtHClinic (PHC)","LGA_count":11,"label":"AB11 - ELOK HP","newlabel":""}},
{"type":"Feature","geometry":{"type":"Point","coordinates":[6.466951000000051,4.718174000000033]},"properties":{"Field1":14,"LGA":"Abua/Odual","Facility_I":14,"Name_of_Fa":"Emago HP","Longitude":6.466951,"Latitude":4.718174,"Facility_T":2,"Facility_d":"HealtHClinic (PHC)","LGA_count":12,"label":"AB12 - EMAGO HP","newlabel":""}},
{"type":"Feature","geometry":{"type":"Point","coordinates":[6.511576000000048,4.816241000000048]},"properties":{"Field1":17,"LGA":"Abua/Odual","Facility_I":17,"Name_of_Fa":"Emelego MPHC","Longitude":6.511576,"Latitude":4.816241,"Facility_T":3,"Facility_d":"Model Primary HealtHCentre (MPHC)","LGA_count":13,"label":"AB13 - EMELEGO MPHC","newlabel":""}},
{"type":"Feature","geometry":{"type":"Point","coordinates":[6.577649000000065,4.93048600000003]},"properties":{"Field1":5,"LGA":"Abua/Odual","Facility_I":5,"Name_of_Fa":"Emesu HP","Longitude":6.577649,"Latitude":4.930486,"Facility_T":2,"Facility_d":"HealtHClinic (PHC)","LGA_count":14,"label":"AB14 - EMESU HP","newlabel":""}},
{"type":"Feature","geometry":{"type":"Point","coordinates":[6.654423000000065,4.801611000000037]},"properties":{"Field1":20,"LGA":"Abua/Odual","Facility_I":20,"Name_of_Fa":"Emoh HP","Longitude":6.654423,"Latitude":4.801611,"Facility_T":2,"Facility_d":"HealtHClinic (PHC)","LGA_count":15,"label":"AB15 - EMOH HP","newlabel":""}},
{"type":"Feature","geometry":{"type":"Point","coordinates":[6.640860000000032,4.786248000000057]},"properties":{"Field1":11,"LGA":"Abua/Odual","Facility_I":11,"Name_of_Fa":"IYAK HP","Longitude":6.64086,"Latitude":4.786248,"Facility_T":2,"Facility_d":"HealtHClinic (PHC)","LGA_count":16,"label":"AB16 - IYAK HP","newlabel":""}},
{"type":"Feature","geometry":{"type":"Point","coordinates":[6.634537500000022,4.835622900000033]},"properties":{"Field1":1,"LGA":"Abua/Odual","Facility_I":1,"Name_of_Fa":"MPHC Ogbema","Longitude":6.6345375,"Latitude":4.8356229,"Facility_T":3,"Facility_d":"Model Primary HealtHCentre (MPHC)","LGA_count":17,"label":"AB17 - MPHC OGBEMA","newlabel":""}},
{"type":"Feature","geometry":{"type":"Point","coordinates":[6.576359000000025,4.918231000000048]},"properties":{"Field1":4,"LGA":"Abua/Odual","Facility_I":4,"Name_of_Fa":"Obarany HP","Longitude":6.576359,"Latitude":4.918231,"Facility_T":2,"Facility_d":"HealtHClinic (PHC)","LGA_count":18,"label":"AB18 - OBARANY HP","newlabel":""}},
{"type":"Feature","geometry":{"type":"Point","coordinates":[6.450078010423756,4.910489239745651]},"properties":{"Field1":19,"LGA":"Abua/Odual","Facility_I":19,"Name_of_Fa":"Odau hp","Longitude":6.450567,"Latitude":4.921736,"Facility_T":2,"Facility_d":"HealtHClinic (PHC)","LGA_count":19,"label":"AB19 - ODAU HP","newlabel":""}},
{"type":"Feature","geometry":{"type":"Point","coordinates":[6.3296320000000605,5.0596420000000535]},"properties":{"Field1":15,"LGA":"Abua/Odual","Facility_I":15,"Name_of_Fa":"Ogboloma HP","Longitude":6.329632,"Latitude":5.059642,"Facility_T":2,"Facility_d":"HealtHClinic (PHC)","LGA_count":20,"label":"AB20 - OGBOLOMA HP","newlabel":""}},
{"type":"Feature","geometry":{"type":"Point","coordinates":[6.709165000000041,4.791278000000034]},"properties":{"Field1":16,"LGA":"Abua/Odual","Facility_I":16,"Name_of_Fa":"Ogonokom HP","Longitude":6.709165,"Latitude":4.791278,"Facility_T":2,"Facility_d":"HealtHClinic (PHC)","LGA_count":21,"label":"AB21 - OGONOKOM HP","newlabel":""}},
{"type":"Feature","geometry":{"type":"Point","coordinates":[6.615616300000056,4.886646100000064]},"properties":{"Field1":10,"LGA":"Abua/Odual","Facility_I":10,"Name_of_Fa":"Okoboh HP","Longitude":6.6156163,"Latitude":4.8866461,"Facility_T":2,"Facility_d":"HealtHClinic (PHC)","LGA_count":22,"label":"AB22 - OKOBOH HP","newlabel":""}},
{"type":"Feature","geometry":{"type":"Point","coordinates":[6.488166000000035,4.850070000000073]},"properties":{"Field1":22,"LGA":"Abua/Odual","Facility_I":22,"Name_of_Fa":"Okolomade hp","Longitude":6.488166,"Latitude":4.85007,"Facility_T":2,"Facility_d":"HealtHClinic (PHC)","LGA_count":23,"label":"AB23 - OKOLOMADE HP","newlabel":""}},
{"type":"Feature","geometry":{"type":"Point","coordinates":[6.686732000000063,4.83339600000005]},"properties":{"Field1":12,"LGA":"Abua/Odual","Facility_I":12,"Name_of_Fa":"Otapha HP","Longitude":6.686732,"Latitude":4.833396,"Facility_T":2,"Facility_d":"HealtHClinic (PHC)","LGA_count":24,"label":"AB24 - OTAPHA HP","newlabel":""}},
{"type":"Feature","geometry":{"type":"Point","coordinates":[6.635517200000038,5.15624710000003]},"properties":{"Field1":38,"LGA":"Ahoada East","Facility_I":14,"Name_of_Fa":"Abarikpo HP","Longitude":6.6355172,"Latitude":5.1562471,"Facility_T":1,"Facility_d":"Health Post (HP)","LGA_count":1,"label":"AE1 - ABARIKPO HP","newlabel":""}},
{"type":"Feature","geometry":{"type":"Point","coordinates":[6.649173400000052,5.083383500000025]},"properties":{"Field1":26,"LGA":"Ahoada East","Facility_I":2,"Name_of_Fa":"CHC Ahoada","Longitude":6.6491734,"Latitude":5.0833835,"Facility_T":1,"Facility_d":"Health Post (HP)","LGA_count":2,"label":"AE2 - CHC AHOADA","newlabel":""}},
{"type":"Feature","geometry":{"type":"Point","coordinates":[6.633560300000056,5.023314700000071]},"properties":{"Field1":27,"LGA":"Ahoada East","Facility_I":3,"Name_of_Fa":"Edeoha PHC","Longitude":6.6335603,"Latitude":5.0233147,"Facility_T":2,"Facility_d":"HealtHClinic (PHC)","LGA_count":3,"label":"AE3 - EDEOHA PHC","newlabel":""}},
{"type":"Feature","geometry":{"type":"Point","coordinates":[6.674740100000065,5.038271800000075]},"properties":{"Field1":30,"LGA":"Ahoada East","Facility_I":6,"Name_of_Fa":"Ihuaba PHC","Longitude":6.6747401,"Latitude":5.0382718,"Facility_T":2,"Facility_d":"HealtHClinic (PHC)","LGA_count":4,"label":"AE4 - IHUABA PHC","newlabel":""}},
{"type":"Feature","geometry":{"type":"Point","coordinates":[6.661156900000037,5.005605400000036]},"properties":{"Field1":29,"LGA":"Ahoada East","Facility_I":5,"Name_of_Fa":"Ihuama MPHC","Longitude":6.6611569,"Latitude":5.0056054,"Facility_T":3,"Facility_d":"Model Primary HealtHCentre (MPHC)","LGA_count":5,"label":"AE5 - IHUAMA MPHC","newlabel":""}},
{"type":"Feature","geometry":{"type":"Point","coordinates":[6.665833900000052,5.137617800000044]},"properties":{"Field1":41,"LGA":"Ahoada East","Facility_I":17,"Name_of_Fa":"Ihugbogbo MPHC","Longitude":6.6658339,"Latitude":5.1376178,"Facility_T":3,"Facility_d":"Model Primary HealtHCentre (MPHC)","LGA_count":6,"label":"AE6 - IHUGBOGBO MPHC","newlabel":""}},
{"type":"Feature","geometry":{"type":"Point","coordinates":[6.660963500000037,5.005533800000023]},"properties":{"Field1":28,"LGA":"Ahoada East","Facility_I":4,"Name_of_Fa":"Ihuowo PHC","Longitude":6.6609635,"Latitude":5.0055338,"Facility_T":2,"Facility_d":"HealtHClinic (PHC)","LGA_count":7,"label":"AE7 - IHUOWO PHC","newlabel":""}},
{"type":"Feature","geometry":{"type":"Point","coordinates":[6.654120500000033,5.0726574000000255]},"properties":{"Field1":25,"LGA":"Ahoada East","Facility_I":1,"Name_of_Fa":"MPHC Ahoada","Longitude":6.6541205,"Latitude":5.0726574,"Facility_T":3,"Facility_d":"Model Primary HealtHCentre (MPHC)","LGA_count":8,"label":"AE8 - MPHC AHOADA","newlabel":""}},
{"type":"Feature","geometry":{"type":"Point","coordinates":[6.633324943883902,5.185564415466474]},"properties":{"Field1":39,"LGA":"Ahoada East","Facility_I":15,"Name_of_Fa":"MPHC Ihuaje","Longitude":6.6375978,"Latitude":5.1904782,"Facility_T":3,"Facility_d":"Model Primary HealtHCentre (MPHC)","LGA_count":9,"label":"AE9 - MPHC IHUAJE","newlabel":""}},
{"type":"Feature","geometry":{"type":"Point","coordinates":[6.5878119000000765,5.002146400000072]},"properties":{"Field1":33,"LGA":"Ahoada East","Facility_I":9,"Name_of_Fa":"Ochigba PHC","Longitude":6.5878119,"Latitude":5.0021464,"Facility_T":2,"Facility_d":"HealtHClinic (PHC)","LGA_count":10,"label":"AE10 - OCHIGBA PHC","newlabel":""}},
{"type":"Feature","geometry":{"type":"Point","coordinates":[6.635808900000029,4.950135400000022]},"properties":{"Field1":31,"LGA":"Ahoada East","Facility_I":7,"Name_of_Fa":"Odiabidi PHC","Longitude":6.6358089,"Latitude":4.9501354,"Facility_T":2,"Facility_d":"HealtHClinic (PHC)","LGA_count":11,"label":"AE11 - ODIABIDI PHC","newlabel":""}},
{"type":"Feature","geometry":{"type":"Point","coordinates":[6.66729330000004,5.070173100000034]},"properties":{"Field1":43,"LGA":"Ahoada East","Facility_I":19,"Name_of_Fa":"Odiaje HP","Longitude":6.6672933,"Latitude":5.0701731,"Facility_T":2,"Facility_d":"HealtHClinic (PHC)","LGA_count":12,"label":"AE12 - ODIAJE HP","newlabel":""}},
{"type":"Feature","geometry":{"type":"Point","coordinates":[6.681766712908978,5.104138733152796]},"properties":{"Field1":44,"LGA":"Ahoada East","Facility_I":20,"Name_of_Fa":"Odiemerenyi HC","Longitude":6.6523491,"Latitude":5.0916206,"Facility_T":2,"Facility_d":"HealtHClinic (PHC)","LGA_count":13,"label":"AE13 - ODIEMERENYI HC","newlabel":""}},
{"type":"Feature","geometry":{"type":"Point","coordinates":[6.67599690000003,5.121059500000058]},"properties":{"Field1":42,"LGA":"Ahoada East","Facility_I":18,"Name_of_Fa":"Odiemudie HC","Longitude":6.6759969,"Latitude":5.1210595,"Facility_T":2,"Facility_d":"HealtHClinic (PHC)","LGA_count":14,"label":"AE14 - ODIEMUDIE HC","newlabel":""}},
{"type":"Feature","geometry":{"type":"Point","coordinates":[6.654163254406564,4.919736579152604]},"properties":{"Field1":32,"LGA":"Ahoada East","Facility_I":8,"Name_of_Fa":"Ogbele PHC","Longitude":6.6707889,"Latitude":4.9187586,"Facility_T":2,"Facility_d":"HealtHClinic (PHC)","LGA_count":15,"label":"AE15 - OGBELE PHC","newlabel":""}},
{"type":"Feature","geometry":{"type":"Point","coordinates":[6.626393000000064,5.134122300000058]},"properties":{"Field1":37,"LGA":"Ahoada East","Facility_I":13,"Name_of_Fa":"Ogbo HC","Longitude":6.626393,"Latitude":5.1341223,"Facility_T":2,"Facility_d":"HealtHClinic (PHC)","LGA_count":16,"label":"AE16 - OGBO HC","newlabel":""}},
{"type":"Feature","geometry":{"type":"Point","coordinates":[6.691816496047175,5.141396966537394]},"properties":{"Field1":40,"LGA":"Ahoada East","Facility_I":16,"Name_of_Fa":"Okporomini HP","Longitude":6.675366,"Latitude":5.1804936,"Facility_T":1,"Facility_d":"Health Post (HP)","LGA_count":17,"label":"AE17 - OKPOROMINI HP","newlabel":""}},
{"type":"Feature","geometry":{"type":"Point","coordinates":[6.635617600000046,4.966742600000032]},"properties":{"Field1":34,"LGA":"Ahoada East","Facility_I":10,"Name_of_Fa":"Okporowo MPHC","Longitude":6.6356176,"Latitude":4.9667426,"Facility_T":3,"Facility_d":"Model Primary HealtHCentre (MPHC)","LGA_count":18,"label":"AE18 - OKPOROWO MPHC","newlabel":""}},
{"type":"Feature","geometry":{"type":"Point","coordinates":[6.6286753000000544,5.103956700000026]},"properties":{"Field1":36,"LGA":"Ahoada East","Facility_I":12,"Name_of_Fa":"Ula Ehuda","Longitude":6.6286753,"Latitude":5.1039567,"Facility_T":2,"Facility_d":"HealtHClinic (PHC)","LGA_count":19,"label":"AE19 - ULA EHUDA","newlabel":""}},
{"type":"Feature","geometry":{"type":"Point","coordinates":[6.6250579000000585,5.092541700000027]},"properties":{"Field1":35,"LGA":"Ahoada East","Facility_I":11,"Name_of_Fa":"Ula Upata PHC","Longitude":6.6250579,"Latitude":5.0925417,"Facility_T":3,"Facility_d":"Model Primary HealtHCentre (MPHC)","LGA_count":20,"label":"AE20 - ULA UPATA PHC","newlabel":""}},
{"type":"Feature","geometry":{"type":"Point","coordinates":[6.552625000000035,5.221471700000052]},"properties":{"Field1":68,"LGA":"Ahoada West","Facility_I":24,"Name_of_Fa":"Edagbiri Cottage Hospital","Longitude":6.552625,"Latitude":5.2214717,"Facility_T":1,"Facility_d":"Health Post (HP)","LGA_count":1,"label":"AW1 - EDAGBIRI COTTAGE HOSPITAL","newlabel":""}},
{"type":"Feature","geometry":{"type":"Point","coordinates":[6.474510300000077,5.092066200000033]},"properties":{"Field1":63,"LGA":"Ahoada West","Facility_I":19,"Name_of_Fa":"EMEZHI 1 PHC","Longitude":6.4745103,"Latitude":5.0920662,"Facility_T":2,"Facility_d":"HealtHClinic (PHC)","LGA_count":2,"label":"AW2 - EMEZHI 1 PHC","newlabel":""}},
{"type":"Feature","geometry":{"type":"Point","coordinates":[6.582916694290505,5.079722613383026]},"properties":{"Field1":64,"LGA":"Ahoada West","Facility_I":20,"Name_of_Fa":"HP Ebiriba","Longitude":6.6492628,"Latitude":5.0831651,"Facility_T":1,"Facility_d":"Health Post (HP)","LGA_count":3,"label":"AW3 - HP EBIRIBA","newlabel":""}},
{"type":"Feature","geometry":{"type":"Point","coordinates":[6.491779500000064,5.165665400000023]},"properties":{"Field1":48,"LGA":"Ahoada West","Facility_I":4,"Name_of_Fa":"HP Isua","Longitude":6.4917795,"Latitude":5.1656654,"Facility_T":1,"Facility_d":"Health Post (HP)","LGA_count":4,"label":"AW4 - HP ISUA","newlabel":""}},
{"type":"Feature","geometry":{"type":"Point","coordinates":[6.573827224919378,5.167287983423014]},"properties":{"Field1":65,"LGA":"Ahoada West","Facility_I":21,"Name_of_Fa":"HP OYIGBA","Longitude":6.6494678,"Latitude":5.0832429,"Facility_T":1,"Facility_d":"Health Post (HP)","LGA_count":5,"label":"AW5 - HP OYIGBA","newlabel":""}},
{"type":"Feature","geometry":{"type":"Point","coordinates":[6.5361392000000365,5.0841910000000325]},"properties":{"Field1":60,"LGA":"Ahoada West","Facility_I":16,"Name_of_Fa":"IDU-EKPEYE","Longitude":6.5361392,"Latitude":5.084191,"Facility_T":2,"Facility_d":"HealtHClinic (PHC)","LGA_count":6,"label":"AW6 - IDU-EKPEYE","newlabel":""}},
{"type":"Feature","geometry":{"type":"Point","coordinates":[6.474605800000063,5.092153500000052]},"properties":{"Field1":67,"LGA":"Ahoada West","Facility_I":23,"Name_of_Fa":"IGOVIA PHC","Longitude":6.4746058,"Latitude":5.0921535,"Facility_T":1,"Facility_d":"Health Post (HP)","LGA_count":7,"label":"AW7 - IGOVIA PHC","newlabel":""}},
{"type":"Feature","geometry":{"type":"Point","coordinates":[6.464599995000071,4.991903070000035]},"properties":{"Field1":62,"LGA":"Ahoada West","Facility_I":18,"Name_of_Fa":"Ikodi-Engeni","Longitude":6.464599995,"Latitude":4.99190307,"Facility_T":3,"Facility_d":"Model Primary HealtHCentre (MPHC)","LGA_count":8,"label":"AW8 - IKODI-ENGENI","newlabel":""}},
{"type":"Feature","geometry":{"type":"Point","coordinates":[6.470698900000059,5.08918570000003]},"properties":{"Field1":45,"LGA":"Ahoada West","Facility_I":1,"Name_of_Fa":"MPHC Akinima","Longitude":6.4706989,"Latitude":5.0891857,"Facility_T":3,"Facility_d":"Model Primary HealtHCentre (MPHC)","LGA_count":9,"label":"AW9 - MPHC AKINIMA","newlabel":""}},
{"type":"Feature","geometry":{"type":"Point","coordinates":[6.428066200000046,4.98467160000007]},"properties":{"Field1":52,"LGA":"Ahoada West","Facility_I":8,"Name_of_Fa":"MPHC Okarki","Longitude":6.4280662,"Latitude":4.9846716,"Facility_T":3,"Facility_d":"Model Primary HealtHCentre (MPHC)","LGA_count":10,"label":"AW10 - MPHC OKARKI","newlabel":""}},
{"type":"Feature","geometry":{"type":"Point","coordinates":[6.5002437000000555,5.168645200000071]},"properties":{"Field1":47,"LGA":"Ahoada West","Facility_I":3,"Name_of_Fa":"Odawu","Longitude":6.5002437,"Latitude":5.1686452,"Facility_T":2,"Facility_d":"HealtHClinic (PHC)","LGA_count":11,"label":"AW11 - ODAWU","newlabel":""}},
{"type":"Feature","geometry":{"type":"Point","coordinates":[6.571550975808699,5.113724492884842]},"properties":{"Field1":56,"LGA":"Ahoada West","Facility_I":12,"Name_of_Fa":"ODIEREKE MPHC","Longitude":6.6492315,"Latitude":5.0841136,"Facility_T":3,"Facility_d":"Model Primary HealtHCentre (MPHC)","LGA_count":12,"label":"AW12 - ODIEREKE MPHC","newlabel":""}},
{"type":"Feature","geometry":{"type":"Point","coordinates":[6.550495205591678,5.04308115474517]},"properties":{"Field1":55,"LGA":"Ahoada West","Facility_I":11,"Name_of_Fa":"ODIOKWU PHC","Longitude":6.6492711,"Latitude":5.0831783,"Facility_T":2,"Facility_d":"HealtHClinic (PHC)","LGA_count":13,"label":"AW13 - ODIOKWU PHC","newlabel":""}},
{"type":"Feature","geometry":{"type":"Point","coordinates":[6.600166327375532,5.140117505844991]},"properties":{"Field1":54,"LGA":"Ahoada West","Facility_I":10,"Name_of_Fa":"Ogbede PHC","Longitude":6.6493,"Latitude":5.08316,"Facility_T":2,"Facility_d":"HealtHClinic (PHC)","LGA_count":14,"label":"AW14 - OGBEDE PHC","newlabel":""}},
{"type":"Feature","geometry":{"type":"Point","coordinates":[6.491424400000028,5.16516770000004]},"properties":{"Field1":71,"LGA":"Ahoada West","Facility_I":27,"Name_of_Fa":"Ogbogolo HP","Longitude":6.4914244,"Latitude":5.1651677,"Facility_T":1,"Facility_d":"Health Post (HP)","LGA_count":15,"label":"AW15 - OGBOGOLO HP","newlabel":""}},
{"type":"Feature","geometry":{"type":"Point","coordinates":[6.54299050000003,5.067976800000054]},"properties":{"Field1":49,"LGA":"Ahoada West","Facility_I":5,"Name_of_Fa":"Okogbe","Longitude":6.5429905,"Latitude":5.0679768,"Facility_T":3,"Facility_d":"Model Primary HealtHCentre (MPHC)","LGA_count":16,"label":"AW16 - OKOGBE","newlabel":""}},
{"type":"Feature","geometry":{"type":"Point","coordinates":[6.474511200000052,5.092261300000075]},"properties":{"Field1":66,"LGA":"Ahoada West","Facility_I":22,"Name_of_Fa":"OKPARAKI PHC","Longitude":6.4745112,"Latitude":5.0922613,"Facility_T":2,"Facility_d":"HealtHClinic (PHC)","LGA_count":17,"label":"AW17 - OKPARAKI PHC","newlabel":""}},
{"type":"Feature","geometry":{"type":"Point","coordinates":[6.474990700000035,5.091774600000065]},"properties":{"Field1":70,"LGA":"Ahoada West","Facility_I":26,"Name_of_Fa":"Oshie HP","Longitude":6.4749907,"Latitude":5.0917746,"Facility_T":2,"Facility_d":"HealtHClinic (PHC)","LGA_count":18,"label":"AW18 - OSHIE HP","newlabel":""}},
{"type":"Feature","geometry":{"type":"Point","coordinates":[6.427634400000045,5.010236500000076]},"properties":{"Field1":53,"LGA":"Ahoada West","Facility_I":9,"Name_of_Fa":"PHC AKIOGBOLOGBO","Longitude":6.4276344,"Latitude":5.0102365,"Facility_T":1,"Facility_d":"Health Post (HP)","LGA_count":19,"label":"AW19 - PHC AKIOGBOLOGBO","newlabel":""}},
{"type":"Feature","geometry":{"type":"Point","coordinates":[6.445097700000076,5.063940700000046]},"properties":{"Field1":46,"LGA":"Ahoada West","Facility_I":2,"Name_of_Fa":"PHC Mbiama","Longitude":6.4450977,"Latitude":5.0639407,"Facility_T":3,"Facility_d":"Model Primary HealtHCentre (MPHC)","LGA_count":20,"label":"AW20 - PHC MBIAMA","newlabel":""}},
{"type":"Feature","geometry":{"type":"Point","coordinates":[6.575037117475351,5.096453629608739]},"properties":{"Field1":57,"LGA":"Ahoada West","Facility_I":13,"Name_of_Fa":"UBARAMA HP","Longitude":6.6403317,"Latitude":5.0970545,"Facility_T":1,"Facility_d":"Health Post (HP)","LGA_count":21,"label":"AW21 - UBARAMA HP","newlabel":""}},
{"type":"Feature","geometry":{"type":"Point","coordinates":[6.542845300000067,5.06796520000006]},"properties":{"Field1":51,"LGA":"Ahoada West","Facility_I":7,"Name_of_Fa":"Ubeta","Longitude":6.5428453,"Latitude":5.0679652,"Facility_T":2,"Facility_d":"HealtHClinic (PHC)","LGA_count":22,"label":"AW22 - UBETA","newlabel":""}},
{"type":"Feature","geometry":{"type":"Point","coordinates":[6.542960200000039,5.067937000000029]},"properties":{"Field1":50,"LGA":"Ahoada West","Facility_I":6,"Name_of_Fa":"Ubio","Longitude":6.5429602,"Latitude":5.067937,"Facility_T":2,"Facility_d":"HealtHClinic (PHC)","LGA_count":23,"label":"AW23 - UBIO","newlabel":""}},
{"type":"Feature","geometry":{"type":"Point","coordinates":[6.494812700000068,5.167720600000052]},"properties":{"Field1":61,"LGA":"Ahoada West","Facility_I":17,"Name_of_Fa":"UDODA HP","Longitude":6.4948127,"Latitude":5.1677206,"Facility_T":1,"Facility_d":"Health Post (HP)","LGA_count":24,"label":"AW24 - UDODA HP","newlabel":""}},
{"type":"Feature","geometry":{"type":"Point","coordinates":[6.536148500000024,5.084155800000076]},"properties":{"Field1":59,"LGA":"Ahoada West","Facility_I":15,"Name_of_Fa":"Ukpeliede","Longitude":6.5361485,"Latitude":5.0841558,"Facility_T":1,"Facility_d":"Health Post (HP)","LGA_count":25,"label":"AW25 - UKPELIEDE","newlabel":""}},
{"type":"Feature","geometry":{"type":"Point","coordinates":[6.596582391041491,5.11633190317488]},"properties":{"Field1":58,"LGA":"Ahoada West","Facility_I":14,"Name_of_Fa":"ULA-UBIE HP","Longitude":6.6410468,"Latitude":5.0961026,"Facility_T":1,"Facility_d":"Health Post (HP)","LGA_count":26,"label":"AW26 - ULA-UBIE HP","newlabel":""}},
{"type":"Feature","geometry":{"type":"Point","coordinates":[6.494793000000072,5.167747100000042]},"properties":{"Field1":69,"LGA":"Ahoada West","Facility_I":25,"Name_of_Fa":"UPATABO PHC","Longitude":6.494793,"Latitude":5.1677471,"Facility_T":2,"Facility_d":"HealtHClinic (PHC)","LGA_count":27,"label":"AW27 - UPATABO PHC","newlabel":""}},
{"type":"Feature","geometry":{"type":"Point","coordinates":[6.764415000000042,4.394604000000072]},"properties":{"Field1":76,"LGA":"Akuku Toru","Facility_I":5,"Name_of_Fa":"ABISSA PHC","Longitude":6.764415,"Latitude":4.394604,"Facility_T":2,"Facility_d":"HealtHClinic (PHC)","LGA_count":1,"label":"AK1 - ABISSA PHC","newlabel":""}},
{"type":"Feature","geometry":{"type":"Point","coordinates":[6.772039300000074,4.737181300000032]},"properties":{"Field1":74,"LGA":"Akuku Toru","Facility_I":3,"Name_of_Fa":"ABONNEMA MPHC","Longitude":6.7720393,"Latitude":4.7371813,"Facility_T":3,"Facility_d":"Model Primary HealtHCentre (MPHC)","LGA_count":2,"label":"AK2 - ABONNEMA MPHC","newlabel":""}},
{"type":"Feature","geometry":{"type":"Point","coordinates":[6.583275300000025,4.673572800000045]},"properties":{"Field1":73,"LGA":"Akuku Toru","Facility_I":2,"Name_of_Fa":"ELEM-SANGAMA HC","Longitude":6.5832753,"Latitude":4.6735728,"Facility_T":2,"Facility_d":"HealtHClinic (PHC)","LGA_count":3,"label":"AK3 - ELEM-SANGAMA HC","newlabel":""}},
{"type":"Feature","geometry":{"type":"Point","coordinates":[6.806770000000029,4.6264960000000315]},"properties":{"Field1":78,"LGA":"Akuku Toru","Facility_I":7,"Name_of_Fa":"Idama","Longitude":6.80677,"Latitude":4.626496,"Facility_T":2,"Facility_d":"HealtHClinic (PHC)","LGA_count":4,"label":"AK4 - IDAMA","newlabel":""}},
{"type":"Feature","geometry":{"type":"Point","coordinates":[6.652717000000052,4.361702000000037]},"properties":{"Field1":77,"LGA":"Akuku Toru","Facility_I":6,"Name_of_Fa":"KULA MPHC","Longitude":6.652717,"Latitude":4.361702,"Facility_T":3,"Facility_d":"Model Primary HealtHCentre (MPHC)","LGA_count":5,"label":"AK5 - KULA MPHC","newlabel":""}},
{"type":"Feature","geometry":{"type":"Point","coordinates":[6.791232000000036,4.71438900000004]},"properties":{"Field1":72,"LGA":"Akuku Toru","Facility_I":1,"Name_of_Fa":"OBONOMA MPHC","Longitude":6.791232,"Latitude":4.714389,"Facility_T":3,"Facility_d":"Model Primary HealtHCentre (MPHC)","LGA_count":6,"label":"AK6 - OBONOMA MPHC","newlabel":""}},
{"type":"Feature","geometry":{"type":"Point","coordinates":[6.682816800000069,4.680415400000072]},"properties":{"Field1":75,"LGA":"Akuku Toru","Facility_I":4,"Name_of_Fa":"SOKU HC","Longitude":6.6828168,"Latitude":4.6804154,"Facility_T":2,"Facility_d":"HealtHClinic (PHC)","LGA_count":7,"label":"AK7 - SOKU HC","newlabel":""}},
{"type":"Feature","geometry":{"type":"Point","coordinates":[7.409311200000047,4.484853000000044]},"properties":{"Field1":93,"LGA":"Andoni","Facility_I":15,"Name_of_Fa":"Agbalama hp","Longitude":7.4093112,"Latitude":4.484853,"Facility_T":1,"Facility_d":"Health Post (HP)","LGA_count":1,"label":"AN1 - AGBALAMA HP","newlabel":""}},
{"type":"Feature","geometry":{"type":"Point","coordinates":[7.409371300000032,4.484911600000032]},"properties":{"Field1":91,"LGA":"Andoni","Facility_I":13,"Name_of_Fa":"Agwut obolo PHC","Longitude":7.4093713,"Latitude":4.4849116,"Facility_T":2,"Facility_d":"HealtHClinic (PHC)","LGA_count":2,"label":"AN2 - AGWUT OBOLO PHC","newlabel":""}},
{"type":"Feature","geometry":{"type":"Point","coordinates":[7.334913328476789,4.547158501230851]},"properties":{"Field1":97,"LGA":"Andoni","Facility_I":19,"Name_of_Fa":"Ajakajak PHC","Longitude":7.3679612,"Latitude":4.5708595,"Facility_T":2,"Facility_d":"HealtHClinic (PHC)","LGA_count":3,"label":"AN3 - AJAKAJAK PHC","newlabel":""}},
{"type":"Feature","geometry":{"type":"Point","coordinates":[7.413869800000043,4.483817900000076]},"properties":{"Field1":104,"LGA":"Andoni","Facility_I":26,"Name_of_Fa":"Akaradi hp","Longitude":7.4138698,"Latitude":4.4838179,"Facility_T":1,"Facility_d":"Health Post (HP)","LGA_count":4,"label":"AN4 - AKARADI HP","newlabel":""}},
{"type":"Feature","geometry":{"type":"Point","coordinates":[7.422746500000073,4.481182600000068]},"properties":{"Field1":101,"LGA":"Andoni","Facility_I":23,"Name_of_Fa":"ATABA MPHC","Longitude":7.4227465,"Latitude":4.4811826,"Facility_T":2,"Facility_d":"HealtHClinic (PHC)","LGA_count":5,"label":"AN5 - ATABA MPHC","newlabel":""}},
{"type":"Feature","geometry":{"type":"Point","coordinates":[7.45481916626333,4.47511209228485]},"properties":{"Field1":90,"LGA":"Andoni","Facility_I":12,"Name_of_Fa":"Ebukuma PHC","Longitude":7.4709767,"Latitude":4.5034867,"Facility_T":2,"Facility_d":"HealtHClinic (PHC)","LGA_count":6,"label":"AN6 - EBUKUMA PHC","newlabel":""}},
{"type":"Feature","geometry":{"type":"Point","coordinates":[7.42286740000003,4.481213100000048]},"properties":{"Field1":103,"LGA":"Andoni","Facility_I":25,"Name_of_Fa":"EGBORMUNG HP","Longitude":7.4228674,"Latitude":4.4812131,"Facility_T":1,"Facility_d":"Health Post (HP)","LGA_count":7,"label":"AN7 - EGBORMUNG HP","newlabel":""}},
{"type":"Feature","geometry":{"type":"Point","coordinates":[7.41385930000007,4.483769700000039]},"properties":{"Field1":84,"LGA":"Andoni","Facility_I":6,"Name_of_Fa":"EGWEDE PHC","Longitude":7.4138593,"Latitude":4.4837697,"Facility_T":2,"Facility_d":"HealtHClinic (PHC)","LGA_count":8,"label":"AN8 - EGWEDE PHC","newlabel":""}},
{"type":"Feature","geometry":{"type":"Point","coordinates":[7.409356500000058,4.484921100000065]},"properties":{"Field1":85,"LGA":"Andoni","Facility_I":7,"Name_of_Fa":"EKEDE PHC","Longitude":7.4093565,"Latitude":4.4849211,"Facility_T":2,"Facility_d":"HealtHClinic (PHC)","LGA_count":9,"label":"AN9 - EKEDE PHC","newlabel":""}},
{"type":"Feature","geometry":{"type":"Point","coordinates":[7.419739034006986,4.533352169808671]},"properties":{"Field1":87,"LGA":"Andoni","Facility_I":9,"Name_of_Fa":"HP Asaramaija","Longitude":7.4379664,"Latitude":4.5262905,"Facility_T":1,"Facility_d":"Health Post (HP)","LGA_count":10,"label":"AN10 - HP ASARAMAIJA","newlabel":""}},
{"type":"Feature","geometry":{"type":"Point","coordinates":[7.4731706966505875,4.4748725698426215]},"properties":{"Field1":100,"LGA":"Andoni","Facility_I":22,"Name_of_Fa":"HP Asuk-ama","Longitude":7.4724535,"Latitude":4.486628,"Facility_T":1,"Facility_d":"Health Post (HP)","LGA_count":11,"label":"AN11 - HP ASUK-AMA","newlabel":""}},
{"type":"Feature","geometry":{"type":"Point","coordinates":[7.419560732235294,4.5226152085440035]},"properties":{"Field1":88,"LGA":"Andoni","Facility_I":10,"Name_of_Fa":"HP Egendem","Longitude":7.458589,"Latitude":4.5343912,"Facility_T":1,"Facility_d":"Health Post (HP)","LGA_count":12,"label":"AN12 - HP EGENDEM","newlabel":""}},
{"type":"Feature","geometry":{"type":"Point","coordinates":[7.0086017000000425,4.817601700000068]},"properties":{"Field1":98,"LGA":"Andoni","Facility_I":20,"Name_of_Fa":"HP Iwoma","Longitude":7.0086017,"Latitude":4.8176017,"Facility_T":1,"Facility_d":"Health Post (HP)","LGA_count":13,"label":"AN13 - HP IWOMA","newlabel":""}},
{"type":"Feature","geometry":{"type":"Point","coordinates":[7.373547363623042,4.546189720723811]},"properties":{"Field1":96,"LGA":"Andoni","Facility_I":18,"Name_of_Fa":"IBOTIREM PHC","Longitude":7.3782208,"Latitude":4.5655511,"Facility_T":1,"Facility_d":"Health Post (HP)","LGA_count":14,"label":"AN14 - IBOTIREM PHC","newlabel":""}},
{"type":"Feature","geometry":{"type":"Point","coordinates":[7.422890000000052,4.4812125000000265]},"properties":{"Field1":94,"LGA":"Andoni","Facility_I":16,"Name_of_Fa":"Ilotombi hp","Longitude":7.42289,"Latitude":4.4812125,"Facility_T":1,"Facility_d":"Health Post (HP)","LGA_count":15,"label":"AN15 - ILOTOMBI HP","newlabel":""}},
{"type":"Feature","geometry":{"type":"Point","coordinates":[7.466028100000074,4.456353700000022]},"properties":{"Field1":79,"LGA":"Andoni","Facility_I":1,"Name_of_Fa":"MPHC IKURU","Longitude":7.4660281,"Latitude":4.4563537,"Facility_T":3,"Facility_d":"Model Primary HealtHCentre (MPHC)","LGA_count":16,"label":"AN16 - MPHC IKURU","newlabel":""}},
{"type":"Feature","geometry":{"type":"Point","coordinates":[7.434850193063095,4.480299328475001]},"properties":{"Field1":80,"LGA":"Andoni","Facility_I":2,"Name_of_Fa":"MPHC UNYEADA","Longitude":7.4650137,"Latitude":4.5081122,"Facility_T":3,"Facility_d":"Model Primary HealtHCentre (MPHC)","LGA_count":17,"label":"AN17 - MPHC UNYEADA","newlabel":""}},
{"type":"Feature","geometry":{"type":"Point","coordinates":[7.414237700000058,4.478681400000028]},"properties":{"Field1":82,"LGA":"Andoni","Facility_I":4,"Name_of_Fa":"Ngo PHC","Longitude":7.4142377,"Latitude":4.4786814,"Facility_T":3,"Facility_d":"Model Primary HealtHCentre (MPHC)","LGA_count":18,"label":"AN18 - NGO PHC","newlabel":""}},
{"type":"Feature","geometry":{"type":"Point","coordinates":[7.536024639121995,4.467430359696123]},"properties":{"Field1":89,"LGA":"Andoni","Facility_I":11,"Name_of_Fa":"Okoroboile PHC","Longitude":7.5452966,"Latitude":4.477765,"Facility_T":2,"Facility_d":"HealtHClinic (PHC)","LGA_count":19,"label":"AN19 - OKOROBOILE PHC","newlabel":""}},
{"type":"Feature","geometry":{"type":"Point","coordinates":[7.409339300000056,4.48494560000006]},"properties":{"Field1":102,"LGA":"Andoni","Facility_I":24,"Name_of_Fa":"ORONIJA PHC","Longitude":7.4093393,"Latitude":4.4849456,"Facility_T":2,"Facility_d":"HealtHClinic (PHC)","LGA_count":20,"label":"AN20 - ORONIJA PHC","newlabel":""}},
{"type":"Feature","geometry":{"type":"Point","coordinates":[7.383663448043397,4.5453290025353255]},"properties":{"Field1":95,"LGA":"Andoni","Facility_I":17,"Name_of_Fa":"OTUAFU/OTUNRIA HP","Longitude":7.3866678,"Latitude":4.5670271,"Facility_T":1,"Facility_d":"Health Post (HP)","LGA_count":21,"label":"AN21 - OTUAFU/OTUNRIA HP","newlabel":""}},
{"type":"Feature","geometry":{"type":"Point","coordinates":[7.409316400000023,4.484926100000052]},"properties":{"Field1":92,"LGA":"Andoni","Facility_I":14,"Name_of_Fa":"Oyorokoto PHC","Longitude":7.4093164,"Latitude":4.4849261,"Facility_T":2,"Facility_d":"HealtHClinic (PHC)","LGA_count":22,"label":"AN22 - OYOROKOTO PHC","newlabel":""}},
{"type":"Feature","geometry":{"type":"Point","coordinates":[7.4027889687274175,4.537890742589314]},"properties":{"Field1":81,"LGA":"Andoni","Facility_I":3,"Name_of_Fa":"PHC center Asarama","Longitude":7.4494602,"Latitude":4.5408809,"Facility_T":2,"Facility_d":"HealtHClinic (PHC)","LGA_count":23,"label":"AN23 - PHC CENTER ASARAMA","newlabel":""}},
{"type":"Feature","geometry":{"type":"Point","coordinates":[7.404379934033206,4.524702407199483]},"properties":{"Field1":86,"LGA":"Andoni","Facility_I":8,"Name_of_Fa":"PHC Inyong-orong","Longitude":7.4528877,"Latitude":4.5616309,"Facility_T":2,"Facility_d":"HealtHClinic (PHC)","LGA_count":24,"label":"AN24 - PHC INYONG-ORONG","newlabel":""}},
{"type":"Feature","geometry":{"type":"Point","coordinates":[7.3607453752893495,4.55318332333266]},"properties":{"Field1":99,"LGA":"Andoni","Facility_I":21,"Name_of_Fa":"PHC Isiodum","Longitude":7.3730966,"Latitude":4.5685389,"Facility_T":1,"Facility_d":"Health Post (HP)","LGA_count":25,"label":"AN25 - PHC ISIODUM","newlabel":""}},
{"type":"Feature","geometry":{"type":"Point","coordinates":[7.405620000000056,4.486221700000044]},"properties":{"Field1":83,"LGA":"Andoni","Facility_I":5,"Name_of_Fa":"Unyengala PHC","Longitude":7.40562,"Latitude":4.4862217,"Facility_T":2,"Facility_d":"HealtHClinic (PHC)","LGA_count":26,"label":"AN26 - UNYENGALA PHC","newlabel":""}},
{"type":"Feature","geometry":{"type":"Point","coordinates":[6.8349278000000595,4.768172200000038]},"properties":{"Field1":111,"LGA":"Asari Toru","Facility_I":7,"Name_of_Fa":"Abalama MPHC","Longitude":6.8349278,"Latitude":4.7681722,"Facility_T":3,"Facility_d":"Model Primary HealtHCentre (MPHC)","LGA_count":1,"label":"AS1 - ABALAMA MPHC","newlabel":""}},
{"type":"Feature","geometry":{"type":"Point","coordinates":[6.833525400000042,4.724409900000069]},"properties":{"Field1":108,"LGA":"Asari Toru","Facility_I":4,"Name_of_Fa":"Angulama","Longitude":6.8335254,"Latitude":4.7244099,"Facility_T":2,"Facility_d":"HealtHClinic (PHC)","LGA_count":2,"label":"AS2 - ANGULAMA","newlabel":""}},
{"type":"Feature","geometry":{"type":"Point","coordinates":[6.866506700000059,4.731465000000071]},"properties":{"Field1":112,"LGA":"Asari Toru","Facility_I":8,"Name_of_Fa":"Buguma MPHC","Longitude":6.8665067,"Latitude":4.731465,"Facility_T":3,"Facility_d":"Model Primary HealtHCentre (MPHC)","LGA_count":3,"label":"AS3 - BUGUMA MPHC","newlabel":""}},
{"type":"Feature","geometry":{"type":"Point","coordinates":[6.84940000000006,4.741256700000065]},"properties":{"Field1":113,"LGA":"Asari Toru","Facility_I":9,"Name_of_Fa":"IDO MPHC","Longitude":6.8494,"Latitude":4.7412567,"Facility_T":3,"Facility_d":"Model Primary HealtHCentre (MPHC)","LGA_count":4,"label":"AS4 - IDO MPHC","newlabel":""}},
{"type":"Feature","geometry":{"type":"Point","coordinates":[6.81398310000003,4.763077400000043]},"properties":{"Field1":115,"LGA":"Asari Toru","Facility_I":11,"Name_of_Fa":"Ifoko PHC","Longitude":6.8139831,"Latitude":4.7630774,"Facility_T":2,"Facility_d":"HealtHClinic (PHC)","LGA_count":5,"label":"AS5 - IFOKO PHC","newlabel":""}},
{"type":"Feature","geometry":{"type":"Point","coordinates":[6.797836796652692,4.7840554329560545]},"properties":{"Field1":109,"LGA":"Asari Toru","Facility_I":5,"Name_of_Fa":"Ilelema PHC","Longitude":6.787622,"Latitude":4.7948711,"Facility_T":2,"Facility_d":"HealtHClinic (PHC)","LGA_count":6,"label":"AS6 - ILELEMA PHC","newlabel":""}},
{"type":"Feature","geometry":{"type":"Point","coordinates":[6.787368900000047,4.750474900000029]},"properties":{"Field1":105,"LGA":"Asari Toru","Facility_I":1,"Name_of_Fa":"Krakrama","Longitude":6.7873689,"Latitude":4.7504749,"Facility_T":1,"Facility_d":"Health Post (HP)","LGA_count":7,"label":"AS7 - KRAKRAMA","newlabel":""}},
{"type":"Feature","geometry":{"type":"Point","coordinates":[6.813777300000027,4.734539500000039]},"properties":{"Field1":117,"LGA":"Asari Toru","Facility_I":13,"Name_of_Fa":"MINAMA MPHC","Longitude":6.8137773,"Latitude":4.7345395,"Facility_T":2,"Facility_d":"HealtHClinic (PHC)","LGA_count":8,"label":"AS8 - MINAMA MPHC","newlabel":""}},
{"type":"Feature","geometry":{"type":"Point","coordinates":[6.832381500000054,4.739431700000068]},"properties":{"Field1":107,"LGA":"Asari Toru","Facility_I":3,"Name_of_Fa":"Omekweama","Longitude":6.8323815,"Latitude":4.7394317,"Facility_T":1,"Facility_d":"Health Post (HP)","LGA_count":9,"label":"AS9 - OMEKWEAMA","newlabel":""}},
{"type":"Feature","geometry":{"type":"Point","coordinates":[6.839831418434725,4.791036023086502]},"properties":{"Field1":116,"LGA":"Asari Toru","Facility_I":12,"Name_of_Fa":"Oproama PHC","Longitude":6.8422349,"Latitude":4.8016514,"Facility_T":2,"Facility_d":"HealtHClinic (PHC)","LGA_count":10,"label":"AS10 - OPROAMA PHC","newlabel":""}},
{"type":"Feature","geometry":{"type":"Point","coordinates":[6.821495900000059,4.7586050000000455]},"properties":{"Field1":106,"LGA":"Asari Toru","Facility_I":2,"Name_of_Fa":"PHC Sangama","Longitude":6.8214959,"Latitude":4.758605,"Facility_T":2,"Facility_d":"HealtHClinic (PHC)","LGA_count":11,"label":"AS11 - PHC SANGAMA","newlabel":""}},
{"type":"Feature","geometry":{"type":"Point","coordinates":[6.829065439478284,4.804376724390975]},"properties":{"Field1":114,"LGA":"Asari Toru","Facility_I":10,"Name_of_Fa":"Sama MPHC","Longitude":6.8298666,"Latitude":4.8129892,"Facility_T":3,"Facility_d":"Model Primary HealtHCentre (MPHC)","LGA_count":12,"label":"AS12 - SAMA MPHC","newlabel":""}},
{"type":"Feature","geometry":{"type":"Point","coordinates":[6.81720260000003,4.782146300000022]},"properties":{"Field1":110,"LGA":"Asari Toru","Facility_I":6,"Name_of_Fa":"Tema","Longitude":6.8172026,"Latitude":4.7821463,"Facility_T":2,"Facility_d":"HealtHClinic (PHC)","LGA_count":13,"label":"AS13 - TEMA","newlabel":""}},
{"type":"Feature","geometry":{"type":"Point","coordinates":[7.210416100000032,4.426567200000022]},"properties":{"Field1":119,"LGA":"Bonny","Facility_I":2,"Name_of_Fa":"Abalamabie PHC","Longitude":7.2104161,"Latitude":4.4265672,"Facility_T":2,"Facility_d":"HealtHClinic (PHC)","LGA_count":1,"label":"BO1 - ABALAMABIE PHC","newlabel":""}},
{"type":"Feature","geometry":{"type":"Point","coordinates":[7.1816888375538115,4.434772506827976]},"properties":{"Field1":122,"LGA":"Bonny","Facility_I":5,"Name_of_Fa":"BANIGO","Longitude":7.1815348,"Latitude":4.4347445,"Facility_T":1,"Facility_d":"Health Post (HP)","LGA_count":2,"label":"BO2 - BANIGO","newlabel":""}},
{"type":"Feature","geometry":{"type":"Point","coordinates":[7.172055200000045,4.444578700000022]},"properties":{"Field1":118,"LGA":"Bonny","Facility_I":1,"Name_of_Fa":"Bonny MPHC","Longitude":7.1720552,"Latitude":4.4445787,"Facility_T":3,"Facility_d":"Model Primary HealtHCentre (MPHC)","LGA_count":3,"label":"BO3 - BONNY MPHC","newlabel":""}},
{"type":"Feature","geometry":{"type":"Point","coordinates":[7.214646000000073,4.452617000000032]},"properties":{"Field1":124,"LGA":"Bonny","Facility_I":7,"Name_of_Fa":"BURUKIRI  HP","Longitude":7.214646,"Latitude":4.452617,"Facility_T":1,"Facility_d":"Health Post (HP)","LGA_count":4,"label":"BO4 - BURUKIRI  HP","newlabel":""}},
{"type":"Feature","geometry":{"type":"Point","coordinates":[7.1560177000000635,4.398638100000028]},"properties":{"Field1":120,"LGA":"Bonny","Facility_I":3,"Name_of_Fa":"Finima MPHC","Longitude":7.1560177,"Latitude":4.3986381,"Facility_T":2,"Facility_d":"HealtHClinic (PHC)","LGA_count":5,"label":"BO5 - FINIMA MPHC","newlabel":""}},
{"type":"Feature","geometry":{"type":"Point","coordinates":[7.229779000000065,4.463521000000071]},"properties":{"Field1":125,"LGA":"Bonny","Facility_I":8,"Name_of_Fa":"GREEN IWOAMA PHC","Longitude":7.229779,"Latitude":4.463521,"Facility_T":1,"Facility_d":"Health Post (HP)","LGA_count":6,"label":"BO6 - GREEN IWOAMA PHC","newlabel":""}},
{"type":"Feature","geometry":{"type":"Point","coordinates":[7.181544000000031,4.434591400000045]},"properties":{"Field1":127,"LGA":"Bonny","Facility_I":10,"Name_of_Fa":"HALLIDAY  HP","Longitude":7.181544,"Latitude":4.4345914,"Facility_T":1,"Facility_d":"Health Post (HP)","LGA_count":7,"label":"BO7 - HALLIDAY  HP","newlabel":""}},
{"type":"Feature","geometry":{"type":"Point","coordinates":[7.1707874000000515,4.449387300000069]},"properties":{"Field1":121,"LGA":"Bonny","Facility_I":4,"Name_of_Fa":"Infant Welfare Clinic","Longitude":7.1707874,"Latitude":4.4493873,"Facility_T":1,"Facility_d":"Health Post (HP)","LGA_count":8,"label":"BO8 - INFANT WELFARE CLINIC","newlabel":""}},
{"type":"Feature","geometry":{"type":"Point","coordinates":[7.2502450000000636,4.435768000000053]},"properties":{"Field1":128,"LGA":"Bonny","Facility_I":11,"Name_of_Fa":"MPHC  DEMA ABBEY","Longitude":7.250245,"Latitude":4.435768,"Facility_T":3,"Facility_d":"Model Primary HealtHCentre (MPHC)","LGA_count":9,"label":"BO9 - MPHC  DEMA ABBEY","newlabel":""}},
{"type":"Feature","geometry":{"type":"Point","coordinates":[7.178365000000042,4.431220000000053]},"properties":{"Field1":123,"LGA":"Bonny","Facility_I":6,"Name_of_Fa":"OLOMA  PHC","Longitude":7.178365,"Latitude":4.43122,"Facility_T":1,"Facility_d":"Health Post (HP)","LGA_count":10,"label":"BO10 - OLOMA  PHC","newlabel":""}},
{"type":"Feature","geometry":{"type":"Point","coordinates":[7.1718819000000735,4.444702300000074]},"properties":{"Field1":126,"LGA":"Bonny","Facility_I":9,"Name_of_Fa":"PETER SIDE PHC","Longitude":7.1718819,"Latitude":4.4447023,"Facility_T":2,"Facility_d":"HealtHClinic (PHC)","LGA_count":11,"label":"BO11 - PETER SIDE PHC","newlabel":""}},
{"type":"Feature","geometry":{"type":"Point","coordinates":[6.967922000000044,4.738052000000039]},"properties":{"Field1":133,"LGA":"Degema","Facility_I":5,"Name_of_Fa":"BAKANA MPHC","Longitude":6.967922,"Latitude":4.738052,"Facility_T":3,"Facility_d":"Model Primary HealtHCentre (MPHC)","LGA_count":1,"label":"DE1 - BAKANA MPHC","newlabel":""}},
{"type":"Feature","geometry":{"type":"Point","coordinates":[6.887999500000035,4.578148500000054]},"properties":{"Field1":131,"LGA":"Degema","Facility_I":3,"Name_of_Fa":"BILLE MPHC","Longitude":6.8879995,"Latitude":4.5781485,"Facility_T":2,"Facility_d":"HealtHClinic (PHC)","LGA_count":2,"label":"DE2 - BILLE MPHC","newlabel":""}},
{"type":"Feature","geometry":{"type":"Point","coordinates":[6.892840000000035,4.768239000000051]},"properties":{"Field1":130,"LGA":"Degema","Facility_I":2,"Name_of_Fa":"BUKUMA HP","Longitude":6.89284,"Latitude":4.768239,"Facility_T":1,"Facility_d":"Health Post (HP)","LGA_count":3,"label":"DE3 - BUKUMA HP","newlabel":""}},
{"type":"Feature","geometry":{"type":"Point","coordinates":[6.947621597358866,4.679943707673533]},"properties":{"Field1":136,"LGA":"Degema","Facility_I":8,"Name_of_Fa":"CHC DEGEMA","Longitude":6.7645439,"Latitude":4.7497323,"Facility_T":2,"Facility_d":"HealtHClinic (PHC)","LGA_count":4,"label":"DE4 - CHC DEGEMA","newlabel":""}},
{"type":"Feature","geometry":{"type":"Point","coordinates":[6.905854244368666,4.643798015076088]},"properties":{"Field1":137,"LGA":"Degema","Facility_I":9,"Name_of_Fa":"KE HP","Longitude":6.746561,"Latitude":4.764598,"Facility_T":1,"Facility_d":"Health Post (HP)","LGA_count":5,"label":"DE5 - KE HP","newlabel":""}},
{"type":"Feature","geometry":{"type":"Point","coordinates":[6.869906812028582,4.683181448228826]},"properties":{"Field1":134,"LGA":"Degema","Facility_I":6,"Name_of_Fa":"OBUAMA MPHC","Longitude":6.7794633,"Latitude":4.7914633,"Facility_T":3,"Facility_d":"Model Primary HealtHCentre (MPHC)","LGA_count":6,"label":"DE6 - OBUAMA MPHC","newlabel":""}},
{"type":"Feature","geometry":{"type":"Point","coordinates":[6.9376371401490236,4.759199013450788]},"properties":{"Field1":132,"LGA":"Degema","Facility_I":4,"Name_of_Fa":"Oguruama PHC","Longitude":6.9479646,"Latitude":4.7673358,"Facility_T":2,"Facility_d":"HealtHClinic (PHC)","LGA_count":7,"label":"DE7 - OGURUAMA PHC","newlabel":""}},
{"type":"Feature","geometry":{"type":"Point","coordinates":[6.921473659580153,4.7375473273755375]},"properties":{"Field1":129,"LGA":"Degema","Facility_I":1,"Name_of_Fa":"TOMBIA MPHC","Longitude":6.892369,"Latitude":4.786681,"Facility_T":3,"Facility_d":"Model Primary HealtHCentre (MPHC)","LGA_count":8,"label":"DE8 - TOMBIA MPHC","newlabel":""}},
{"type":"Feature","geometry":{"type":"Point","coordinates":[6.865803258632057,4.647499101964021]},"properties":{"Field1":135,"LGA":"Degema","Facility_I":7,"Name_of_Fa":"USOKUN PHC","Longitude":6.7709784,"Latitude":4.7836338,"Facility_T":1,"Facility_d":"Health Post (HP)","LGA_count":9,"label":"DE9 - USOKUN PHC","newlabel":""}},
{"type":"Feature","geometry":{"type":"Point","coordinates":[7.126999100000035,4.80591110000006]},"properties":{"Field1":143,"LGA":"Eleme","Facility_I":6,"Name_of_Fa":"Agbonchia MPHC","Longitude":7.1269991,"Latitude":4.8059111,"Facility_T":3,"Facility_d":"Model Primary HealtHCentre (MPHC)","LGA_count":1,"label":"EL1 - AGBONCHIA MPHC","newlabel":""}},
{"type":"Feature","geometry":{"type":"Point","coordinates":[7.088227600000039,4.817580600000042]},"properties":{"Field1":142,"LGA":"Eleme","Facility_I":5,"Name_of_Fa":"Akpajo MPHC","Longitude":7.0882276,"Latitude":4.8175806,"Facility_T":3,"Facility_d":"Model Primary HealtHCentre (MPHC)","LGA_count":2,"label":"EL2 - AKPAJO MPHC","newlabel":""}},
{"type":"Feature","geometry":{"type":"Point","coordinates":[7.11886080000005,4.787118000000021]},"properties":{"Field1":139,"LGA":"Eleme","Facility_I":2,"Name_of_Fa":"ALESA HP","Longitude":7.1188608,"Latitude":4.787118,"Facility_T":1,"Facility_d":"Health Post (HP)","LGA_count":3,"label":"EL3 - ALESA HP","newlabel":""}},
{"type":"Feature","geometry":{"type":"Point","coordinates":[7.11746450000004,4.793114600000024]},"properties":{"Field1":138,"LGA":"Eleme","Facility_I":1,"Name_of_Fa":"Aleto HP","Longitude":7.1174645,"Latitude":4.7931146,"Facility_T":1,"Facility_d":"Health Post (HP)","LGA_count":4,"label":"EL4 - ALETO HP","newlabel":""}},
{"type":"Feature","geometry":{"type":"Point","coordinates":[7.112730100000022,4.795659900000032]},"properties":{"Field1":145,"LGA":"Eleme","Facility_I":8,"Name_of_Fa":"Ebubu HP","Longitude":7.1127301,"Latitude":4.7956599,"Facility_T":3,"Facility_d":"Model Primary HealtHCentre (MPHC)","LGA_count":5,"label":"EL5 - EBUBU HP","newlabel":""}},
{"type":"Feature","geometry":{"type":"Point","coordinates":[7.155661100000032,4.748970900000074]},"properties":{"Field1":146,"LGA":"Eleme","Facility_I":9,"Name_of_Fa":"MPHC ONNE","Longitude":7.1556611,"Latitude":4.7489709,"Facility_T":3,"Facility_d":"Model Primary HealtHCentre (MPHC)","LGA_count":6,"label":"EL6 - MPHC ONNE","newlabel":""}},
{"type":"Feature","geometry":{"type":"Point","coordinates":[7.1215268000000265,4.7920548000000736]},"properties":{"Field1":141,"LGA":"Eleme","Facility_I":4,"Name_of_Fa":"OGALE PHC","Longitude":7.1215268,"Latitude":4.7920548,"Facility_T":2,"Facility_d":"HealtHClinic (PHC)","LGA_count":7,"label":"EL7 - OGALE PHC","newlabel":""}},
{"type":"Feature","geometry":{"type":"Point","coordinates":[7.124599200000034,4.7830013000000235]},"properties":{"Field1":140,"LGA":"Eleme","Facility_I":3,"Name_of_Fa":"PHC ALODE","Longitude":7.1245992,"Latitude":4.7830013,"Facility_T":2,"Facility_d":"HealtHClinic (PHC)","LGA_count":8,"label":"EL8 - PHC ALODE","newlabel":""}},
{"type":"Feature","geometry":{"type":"Point","coordinates":[7.121406900000068,4.792289800000049]},"properties":{"Field1":144,"LGA":"Eleme","Facility_I":7,"Name_of_Fa":"PHC Ogale","Longitude":7.1214069,"Latitude":4.7922898,"Facility_T":3,"Facility_d":"Model Primary HealtHCentre (MPHC)","LGA_count":9,"label":"EL9 - PHC OGALE","newlabel":""}},
{"type":"Feature","geometry":{"type":"Point","coordinates":[6.733305437119138,5.131079518898203]},"properties":{"Field1":160,"LGA":"Emohua","Facility_I":14,"Name_of_Fa":"AKPABU MPHC","Longitude":6.7069,"Latitude":5.1413483,"Facility_T":3,"Facility_d":"Model Primary HealtHCentre (MPHC)","LGA_count":1,"label":"EM1 - AKPABU MPHC","newlabel":""}},
{"type":"Feature","geometry":{"type":"Point","coordinates":[6.752471700000058,5.222410000000025]},"properties":{"Field1":158,"LGA":"Emohua","Facility_I":12,"Name_of_Fa":"EGBEDA MPHC","Longitude":6.7524717,"Latitude":5.22241,"Facility_T":3,"Facility_d":"Model Primary HealtHCentre (MPHC)","LGA_count":2,"label":"EM2 - EGBEDA MPHC","newlabel":""}},
{"type":"Feature","geometry":{"type":"Point","coordinates":[6.732158300000037,5.054051700000059]},"properties":{"Field1":151,"LGA":"Emohua","Facility_I":5,"Name_of_Fa":"ELELE-ALIMINI HP","Longitude":6.7321583,"Latitude":5.0540517,"Facility_T":2,"Facility_d":"HealtHClinic (PHC)","LGA_count":3,"label":"EM3 - ELELE-ALIMINI HP","newlabel":""}},
{"type":"Feature","geometry":{"type":"Point","coordinates":[6.855958300000054,4.886906700000054]},"properties":{"Field1":149,"LGA":"Emohua","Facility_I":3,"Name_of_Fa":"Emohua Sick bay","Longitude":6.8559583,"Latitude":4.8869067,"Facility_T":2,"Facility_d":"HealtHClinic (PHC)","LGA_count":4,"label":"EM4 - EMOHUA SICK BAY","newlabel":""}},
{"type":"Feature","geometry":{"type":"Point","coordinates":[6.820516000000055,4.984425300000055]},"properties":{"Field1":152,"LGA":"Emohua","Facility_I":6,"Name_of_Fa":"IBAA MPHC","Longitude":6.820516,"Latitude":4.9844253,"Facility_T":3,"Facility_d":"Model Primary HealtHCentre (MPHC)","LGA_count":5,"label":"EM5 - IBAA MPHC","newlabel":""}},
{"type":"Feature","geometry":{"type":"Point","coordinates":[6.749446700000021,4.980115000000069]},"properties":{"Field1":156,"LGA":"Emohua","Facility_I":10,"Name_of_Fa":"NDELE MPHC","Longitude":6.7494467,"Latitude":4.980115,"Facility_T":3,"Facility_d":"Model Primary HealtHCentre (MPHC)","LGA_count":6,"label":"EM6 - NDELE MPHC","newlabel":""}},
{"type":"Feature","geometry":{"type":"Point","coordinates":[6.819331700000021,5.004403300000035]},"properties":{"Field1":153,"LGA":"Emohua","Facility_I":7,"Name_of_Fa":"OBELLE CHC","Longitude":6.8193317,"Latitude":5.0044033,"Facility_T":2,"Facility_d":"HealtHClinic (PHC)","LGA_count":7,"label":"EM7 - OBELLE CHC","newlabel":""}},
{"type":"Feature","geometry":{"type":"Point","coordinates":[6.815304654406583,4.8920561149996]},"properties":{"Field1":161,"LGA":"Emohua","Facility_I":15,"Name_of_Fa":"ODUOHA MPHC","Longitude":6.8319303,"Latitude":4.9209065,"Facility_T":3,"Facility_d":"Model Primary HealtHCentre (MPHC)","LGA_count":8,"label":"EM8 - ODUOHA MPHC","newlabel":"EM8 - ODUOHA MPHC"}},
{"type":"Feature","geometry":{"type":"Point","coordinates":[6.905646700000034,4.829199900000049]},"properties":{"Field1":148,"LGA":"Emohua","Facility_I":2,"Name_of_Fa":"OGBAKIRI 1 PHC","Longitude":6.9056467,"Latitude":4.8291999,"Facility_T":2,"Facility_d":"HealtHClinic (PHC)","LGA_count":9,"label":"EM9 - OGBAKIRI 1 PHC","newlabel":""}},
{"type":"Feature","geometry":{"type":"Point","coordinates":[6.910980700000039,4.814522200000056]},"properties":{"Field1":147,"LGA":"Emohua","Facility_I":1,"Name_of_Fa":"OGBAKIRI 2 MPHC","Longitude":6.9109807,"Latitude":4.8145222,"Facility_T":3,"Facility_d":"Model Primary HealtHCentre (MPHC)","LGA_count":10,"label":"EM10 - OGBAKIRI 2 MPHC","newlabel":""}},
{"type":"Feature","geometry":{"type":"Point","coordinates":[6.7968369000000735,5.170574300000055]},"properties":{"Field1":159,"LGA":"Emohua","Facility_I":13,"Name_of_Fa":"OMUDIOGA PHC","Longitude":6.7968369,"Latitude":5.1705743,"Facility_T":2,"Facility_d":"HealtHClinic (PHC)","LGA_count":11,"label":"EM11 - OMUDIOGA PHC","newlabel":""}},
{"type":"Feature","geometry":{"type":"Point","coordinates":[6.689556000000039,4.983806300000026]},"properties":{"Field1":150,"LGA":"Emohua","Facility_I":4,"Name_of_Fa":"RUMUEKPE HP","Longitude":6.689556,"Latitude":4.9838063,"Facility_T":2,"Facility_d":"HealtHClinic (PHC)","LGA_count":12,"label":"EM12 - RUMUEKPE HP","newlabel":""}},
{"type":"Feature","geometry":{"type":"Point","coordinates":[6.7738050000000385,4.903233300000068]},"properties":{"Field1":154,"LGA":"Emohua","Facility_I":8,"Name_of_Fa":"RUMUEWHOR MPHC","Longitude":6.773805,"Latitude":4.9032333,"Facility_T":3,"Facility_d":"Model Primary HealtHCentre (MPHC)","LGA_count":13,"label":"EM13 - RUMUEWHOR MPHC","newlabel":""}},
{"type":"Feature","geometry":{"type":"Point","coordinates":[6.776508300000046,4.94783330000007]},"properties":{"Field1":155,"LGA":"Emohua","Facility_I":9,"Name_of_Fa":"RUMUJI CHC","Longitude":6.7765083,"Latitude":4.9478333,"Facility_T":2,"Facility_d":"HealtHClinic (PHC)","LGA_count":14,"label":"EM14 - RUMUJI CHC","newlabel":""}},
{"type":"Feature","geometry":{"type":"Point","coordinates":[6.738098300000047,5.269583300000022]},"properties":{"Field1":157,"LGA":"Emohua","Facility_I":11,"Name_of_Fa":"UBIMINI MPHC","Longitude":6.7380983,"Latitude":5.2695833,"Facility_T":3,"Facility_d":"Model Primary HealtHCentre (MPHC)","LGA_count":15,"label":"EM15 - UBIMINI MPHC","newlabel":""}},
{"type":"Feature","geometry":{"type":"Point","coordinates":[7.012551700000074,5.059226600000045]},"properties":{"Field1":165,"LGA":"Etche","Facility_I":4,"Name_of_Fa":"Abara HP","Longitude":7.0125517,"Latitude":5.0592266,"Facility_T":2,"Facility_d":"HealtHClinic (PHC)","LGA_count":1,"label":"ET1 - ABARA HP","newlabel":""}},
{"type":"Feature","geometry":{"type":"Point","coordinates":[7.087238200000058,5.083422800000051]},"properties":{"Field1":176,"LGA":"Etche","Facility_I":15,"Name_of_Fa":"Afara","Longitude":7.0872382,"Latitude":5.0834228,"Facility_T":2,"Facility_d":"HealtHClinic (PHC)","LGA_count":2,"label":"ET2 - AFARA","newlabel":""}},
{"type":"Feature","geometry":{"type":"Point","coordinates":[7.045499600000028,5.1657807000000275]},"properties":{"Field1":178,"LGA":"Etche","Facility_I":17,"Name_of_Fa":"AKPOKU HC","Longitude":7.0454996,"Latitude":5.1657807,"Facility_T":2,"Facility_d":"HealtHClinic (PHC)","LGA_count":3,"label":"ET3 - AKPOKU HC","newlabel":""}},
{"type":"Feature","geometry":{"type":"Point","coordinates":[7.066328600000077,5.018284400000027]},"properties":{"Field1":162,"LGA":"Etche","Facility_I":1,"Name_of_Fa":"Egwi MPHC","Longitude":7.0663286,"Latitude":5.0182844,"Facility_T":3,"Facility_d":"Model Primary HealtHCentre (MPHC)","LGA_count":4,"label":"ET4 - EGWI MPHC","newlabel":""}},
{"type":"Feature","geometry":{"type":"Point","coordinates":[7.086836700000049,4.943611700000076]},"properties":{"Field1":175,"LGA":"Etche","Facility_I":14,"Name_of_Fa":"HC CHOKOTA","Longitude":7.0868367,"Latitude":4.9436117,"Facility_T":2,"Facility_d":"HealtHClinic (PHC)","LGA_count":5,"label":"ET5 - HC CHOKOTA","newlabel":""}},
{"type":"Feature","geometry":{"type":"Point","coordinates":[7.084465400000056,4.988020300000073]},"properties":{"Field1":170,"LGA":"Etche","Facility_I":9,"Name_of_Fa":"HP Okoroagu","Longitude":7.0844654,"Latitude":4.9880203,"Facility_T":2,"Facility_d":"HealtHClinic (PHC)","LGA_count":6,"label":"ET6 - HP OKOROAGU","newlabel":""}},
{"type":"Feature","geometry":{"type":"Point","coordinates":[7.06624400000004,5.018325600000026]},"properties":{"Field1":177,"LGA":"Etche","Facility_I":16,"Name_of_Fa":"Ihie PHC","Longitude":7.066244,"Latitude":5.0183256,"Facility_T":2,"Facility_d":"HealtHClinic (PHC)","LGA_count":7,"label":"ET7 - IHIE PHC","newlabel":""}},
{"type":"Feature","geometry":{"type":"Point","coordinates":[7.15493280000004,5.043809500000066]},"properties":{"Field1":163,"LGA":"Etche","Facility_I":2,"Name_of_Fa":"MPHC AKWA","Longitude":7.1549328,"Latitude":5.0438095,"Facility_T":3,"Facility_d":"Model Primary HealtHCentre (MPHC)","LGA_count":8,"label":"ET8 - MPHC AKWA","newlabel":""}},
{"type":"Feature","geometry":{"type":"Point","coordinates":[7.106457300000045,5.0556071000000316]},"properties":{"Field1":168,"LGA":"Etche","Facility_I":7,"Name_of_Fa":"MPHC ULAKWO","Longitude":7.1064573,"Latitude":5.0556071,"Facility_T":3,"Facility_d":"Model Primary HealtHCentre (MPHC)","LGA_count":9,"label":"ET9 - MPHC ULAKWO","newlabel":""}},
{"type":"Feature","geometry":{"type":"Point","coordinates":[7.158810200000062,5.129624500000034]},"properties":{"Field1":167,"LGA":"Etche","Facility_I":6,"Name_of_Fa":"MPHC, okehi","Longitude":7.1588102,"Latitude":5.1296245,"Facility_T":1,"Facility_d":"Health Post (HP)","LGA_count":10,"label":"ET10 - MPHC, OKEHI","newlabel":""}},
{"type":"Feature","geometry":{"type":"Point","coordinates":[7.058821300000034,5.072125700000072]},"properties":{"Field1":173,"LGA":"Etche","Facility_I":12,"Name_of_Fa":"Nihi","Longitude":7.0588213,"Latitude":5.0721257,"Facility_T":2,"Facility_d":"HealtHClinic (PHC)","LGA_count":11,"label":"ET11 - NIHI","newlabel":""}},
{"type":"Feature","geometry":{"type":"Point","coordinates":[7.092696700000033,5.197228508474462]},"properties":{"Field1":174,"LGA":"Etche","Facility_I":13,"Name_of_Fa":"Obite","Longitude":7.0926967,"Latitude":5.2070083,"Facility_T":1,"Facility_d":"Health Post (HP)","LGA_count":12,"label":"ET12 - OBITE","newlabel":""}},
{"type":"Feature","geometry":{"type":"Point","coordinates":[7.055477400000029,5.099716800000067]},"properties":{"Field1":180,"LGA":"Etche","Facility_I":19,"Name_of_Fa":"Odufor MPHC","Longitude":7.0554774,"Latitude":5.0997168,"Facility_T":3,"Facility_d":"Model Primary HealtHCentre (MPHC)","LGA_count":13,"label":"ET13 - ODUFOR MPHC","newlabel":""}},
{"type":"Feature","geometry":{"type":"Point","coordinates":[7.003593900000055,5.203609800000038]},"properties":{"Field1":172,"LGA":"Etche","Facility_I":11,"Name_of_Fa":"Orwu Ogida","Longitude":7.0035939,"Latitude":5.2036098,"Facility_T":1,"Facility_d":"Health Post (HP)","LGA_count":14,"label":"ET14 - ORWU OGIDA","newlabel":""}},
{"type":"Feature","geometry":{"type":"Point","coordinates":[7.006017000000043,5.139058000000034]},"properties":{"Field1":169,"LGA":"Etche","Facility_I":8,"Name_of_Fa":"OZUZU PHC","Longitude":7.006017,"Latitude":5.139058,"Facility_T":3,"Facility_d":"Model Primary HealtHCentre (MPHC)","LGA_count":15,"label":"ET15 - OZUZU PHC","newlabel":""}},
{"type":"Feature","geometry":{"type":"Point","coordinates":[7.117148400000076,5.228472300000021]},"properties":{"Field1":171,"LGA":"Etche","Facility_I":10,"Name_of_Fa":"PHC NDASHI","Longitude":7.1171484,"Latitude":5.2284723,"Facility_T":2,"Facility_d":"HealtHClinic (PHC)","LGA_count":16,"label":"ET16 - PHC NDASHI","newlabel":""}},
{"type":"Feature","geometry":{"type":"Point","coordinates":[7.166550000000029,5.0940383000000224]},"properties":{"Field1":164,"LGA":"Etche","Facility_I":3,"Name_of_Fa":"PHC Umuogerem","Longitude":7.16655,"Latitude":5.0940383,"Facility_T":2,"Facility_d":"HealtHClinic (PHC)","LGA_count":17,"label":"ET17 - PHC UMUOGEREM","newlabel":""}},
{"type":"Feature","geometry":{"type":"Point","coordinates":[7.169208300000037,5.185086500000068]},"properties":{"Field1":166,"LGA":"Etche","Facility_I":5,"Name_of_Fa":"PHC Umuohie","Longitude":7.1692083,"Latitude":5.1850865,"Facility_T":2,"Facility_d":"HealtHClinic (PHC)","LGA_count":18,"label":"ET18 - PHC UMUOHIE","newlabel":""}},
{"type":"Feature","geometry":{"type":"Point","coordinates":[7.095901500000025,5.158120600000075]},"properties":{"Field1":179,"LGA":"Etche","Facility_I":18,"Name_of_Fa":"Umuaturu  HC","Longitude":7.0959015,"Latitude":5.1581206,"Facility_T":2,"Facility_d":"HealtHClinic (PHC)","LGA_count":19,"label":"ET19 - UMUATURU  HC","newlabel":""}},
{"type":"Feature","geometry":{"type":"Point","coordinates":[7.3016351000000554,4.669169000000068]},"properties":{"Field1":183,"LGA":"Gokana","Facility_I":3,"Name_of_Fa":"Biara CHC","Longitude":7.3016351,"Latitude":4.669169,"Facility_T":2,"Facility_d":"HealtHClinic (PHC)","LGA_count":1,"label":"GO1 - BIARA CHC","newlabel":""}},
{"type":"Feature","geometry":{"type":"Point","coordinates":[7.27542550000004,4.63369380000006]},"properties":{"Field1":191,"LGA":"Gokana","Facility_I":11,"Name_of_Fa":"Bodo HP","Longitude":7.2754255,"Latitude":4.6336938,"Facility_T":1,"Facility_d":"Health Post (HP)","LGA_count":2,"label":"GO2 - BODO HP","newlabel":""}},
{"type":"Feature","geometry":{"type":"Point","coordinates":[7.302593400000035,4.634430100000031]},"properties":{"Field1":190,"LGA":"Gokana","Facility_I":10,"Name_of_Fa":"Bomu MPHC","Longitude":7.3025934,"Latitude":4.6344301,"Facility_T":3,"Facility_d":"Model Primary HealtHCentre (MPHC)","LGA_count":3,"label":"GO3 - BOMU MPHC","newlabel":""}},
{"type":"Feature","geometry":{"type":"Point","coordinates":[7.310044800000071,4.6778759000000605]},"properties":{"Field1":188,"LGA":"Gokana","Facility_I":8,"Name_of_Fa":"Deeyor HP","Longitude":7.3100448,"Latitude":4.6778759,"Facility_T":1,"Facility_d":"Health Post (HP)","LGA_count":4,"label":"GO4 - DEEYOR HP","newlabel":""}},
{"type":"Feature","geometry":{"type":"Point","coordinates":[7.299612600000046,4.710813600000051]},"properties":{"Field1":192,"LGA":"Gokana","Facility_I":12,"Name_of_Fa":"Deken CHC","Longitude":7.2996126,"Latitude":4.7108136,"Facility_T":1,"Facility_d":"Health Post (HP)","LGA_count":5,"label":"GO5 - DEKEN CHC","newlabel":""}},
{"type":"Feature","geometry":{"type":"Point","coordinates":[7.287709100000029,4.630388000000039]},"properties":{"Field1":186,"LGA":"Gokana","Facility_I":6,"Name_of_Fa":"Gbe HP","Longitude":7.2877091,"Latitude":4.630388,"Facility_T":1,"Facility_d":"Health Post (HP)","LGA_count":6,"label":"GO6 - GBE HP","newlabel":""}},
{"type":"Feature","geometry":{"type":"Point","coordinates":[7.275333700000033,4.665937000000042]},"properties":{"Field1":184,"LGA":"Gokana","Facility_I":4,"Name_of_Fa":"K Dere CHC","Longitude":7.2753337,"Latitude":4.665937,"Facility_T":2,"Facility_d":"HealtHClinic (PHC)","LGA_count":7,"label":"GO7 - K DERE CHC","newlabel":""}},
{"type":"Feature","geometry":{"type":"Point","coordinates":[7.290599000000043,4.649892500000021]},"properties":{"Field1":185,"LGA":"Gokana","Facility_I":5,"Name_of_Fa":"Mogho HP","Longitude":7.290599,"Latitude":4.6498925,"Facility_T":1,"Facility_d":"Health Post (HP)","LGA_count":8,"label":"GO8 - MOGHO HP","newlabel":""}},
{"type":"Feature","geometry":{"type":"Point","coordinates":[7.26475030000006,4.673631400000033]},"properties":{"Field1":181,"LGA":"Gokana","Facility_I":1,"Name_of_Fa":"MPHC B Dere","Longitude":7.2647503,"Latitude":4.6736314,"Facility_T":3,"Facility_d":"Model Primary HealtHCentre (MPHC)","LGA_count":9,"label":"GO9 - MPHC B DERE","newlabel":""}},
{"type":"Feature","geometry":{"type":"Point","coordinates":[7.3180481000000555,4.6698478000000705]},"properties":{"Field1":189,"LGA":"Gokana","Facility_I":9,"Name_of_Fa":"MPHC Barako","Longitude":7.3180481,"Latitude":4.6698478,"Facility_T":3,"Facility_d":"Model Primary HealtHCentre (MPHC)","LGA_count":10,"label":"GO10 - MPHC BARAKO","newlabel":""}},
{"type":"Feature","geometry":{"type":"Point","coordinates":[7.264920000000075,4.673543600000073]},"properties":{"Field1":182,"LGA":"Gokana","Facility_I":2,"Name_of_Fa":"MPHC Bera","Longitude":7.26492,"Latitude":4.6735436,"Facility_T":1,"Facility_d":"Health Post (HP)","LGA_count":11,"label":"GO11 - MPHC BERA","newlabel":""}},
{"type":"Feature","geometry":{"type":"Point","coordinates":[7.283433700000046,4.652030000000025]},"properties":{"Field1":187,"LGA":"Gokana","Facility_I":7,"Name_of_Fa":"MPHC Kpor","Longitude":7.2834337,"Latitude":4.65203,"Facility_T":3,"Facility_d":"Model Primary HealtHCentre (MPHC)","LGA_count":12,"label":"GO12 - MPHC KPOR","newlabel":""}},
{"type":"Feature","geometry":{"type":"Point","coordinates":[7.305226700000048,4.660018300000047]},"properties":{"Field1":194,"LGA":"Gokana","Facility_I":14,"Name_of_Fa":"Nweol MPHC","Longitude":7.3052267,"Latitude":4.6600183,"Facility_T":3,"Facility_d":"Model Primary HealtHCentre (MPHC)","LGA_count":13,"label":"GO13 - NWEOL MPHC","newlabel":""}},
{"type":"Feature","geometry":{"type":"Point","coordinates":[7.333701653464286,4.69020468002715]},"properties":{"Field1":193,"LGA":"Gokana","Facility_I":13,"Name_of_Fa":"Yeghe MPHC","Longitude":7.3427773,"Latitude":4.6920824,"Facility_T":3,"Facility_d":"Model Primary HealtHCentre (MPHC)","LGA_count":14,"label":"GO14 - YEGHE MPHC","newlabel":""}},
{"type":"Feature","geometry":{"type":"Point","coordinates":[6.879681500000061,4.956511300000045]},"properties":{"Field1":197,"LGA":"Ikwerre","Facility_I":3,"Name_of_Fa":"Adanta  MPHC","Longitude":6.8796815,"Latitude":4.9565113,"Facility_T":3,"Facility_d":"Model Primary HealtHCentre (MPHC)","LGA_count":1,"label":"IK1 - ADANTA  MPHC","newlabel":""}},
{"type":"Feature","geometry":{"type":"Point","coordinates":[6.95967550000006,5.051554900000042]},"properties":{"Field1":203,"LGA":"Ikwerre","Facility_I":9,"Name_of_Fa":"HP  Ipo","Longitude":6.9596755,"Latitude":5.0515549,"Facility_T":1,"Facility_d":"Health Post (HP)","LGA_count":2,"label":"IK2 - HP  IPO","newlabel":""}},
{"type":"Feature","geometry":{"type":"Point","coordinates":[6.879637800000069,4.984912500000064]},"properties":{"Field1":196,"LGA":"Ikwerre","Facility_I":2,"Name_of_Fa":"IWC Isiokpo","Longitude":6.8796378,"Latitude":4.9849125,"Facility_T":1,"Facility_d":"Health Post (HP)","LGA_count":3,"label":"IK3 - IWC ISIOKPO","newlabel":""}},
{"type":"Feature","geometry":{"type":"Point","coordinates":[6.901893800000039,5.118970700000034]},"properties":{"Field1":204,"LGA":"Ikwerre","Facility_I":10,"Name_of_Fa":"MPHC    Ubima","Longitude":6.9018938,"Latitude":5.1189707,"Facility_T":3,"Facility_d":"Model Primary HealtHCentre (MPHC)","LGA_count":4,"label":"IK4 - MPHC    UBIMA","newlabel":""}},
{"type":"Feature","geometry":{"type":"Point","coordinates":[6.916071600000066,4.97907390000006]},"properties":{"Field1":209,"LGA":"Ikwerre","Facility_I":15,"Name_of_Fa":"MPHC  ELELE","Longitude":6.9160716,"Latitude":4.9790739,"Facility_T":3,"Facility_d":"Model Primary HealtHCentre (MPHC)","LGA_count":5,"label":"IK5 - MPHC  ELELE","newlabel":""}},
{"type":"Feature","geometry":{"type":"Point","coordinates":[6.912995800000033,4.97944300000006]},"properties":{"Field1":206,"LGA":"Ikwerre","Facility_I":12,"Name_of_Fa":"MPHC  Omagwa","Longitude":6.9129958,"Latitude":4.979443,"Facility_T":3,"Facility_d":"Model Primary HealtHCentre (MPHC)","LGA_count":6,"label":"IK6 - MPHC  OMAGWA","newlabel":""}},
{"type":"Feature","geometry":{"type":"Point","coordinates":[6.919197200000042,5.063261100000034]},"properties":{"Field1":205,"LGA":"Ikwerre","Facility_I":11,"Name_of_Fa":"MPHC  Ozuaha","Longitude":6.9191972,"Latitude":5.0632611,"Facility_T":3,"Facility_d":"Model Primary HealtHCentre (MPHC)","LGA_count":7,"label":"IK7 - MPHC  OZUAHA","newlabel":""}},
{"type":"Feature","geometry":{"type":"Point","coordinates":[6.940973800000052,4.9334087000000295]},"properties":{"Field1":207,"LGA":"Ikwerre","Facility_I":13,"Name_of_Fa":"MPHC Aluu","Longitude":6.9409738,"Latitude":4.9334087,"Facility_T":3,"Facility_d":"Model Primary HealtHCentre (MPHC)","LGA_count":8,"label":"IK8 - MPHC ALUU","newlabel":""}},
{"type":"Feature","geometry":{"type":"Point","coordinates":[6.913762500000075,5.211358200000063]},"properties":{"Field1":201,"LGA":"Ikwerre","Facility_I":7,"Name_of_Fa":"MPHC Apani","Longitude":6.9137625,"Latitude":5.2113582,"Facility_T":1,"Facility_d":"Health Post (HP)","LGA_count":9,"label":"IK9 - MPHC APANI","newlabel":""}},
{"type":"Feature","geometry":{"type":"Point","coordinates":[6.988614498389353,4.983217943644217]},"properties":{"Field1":198,"LGA":"Ikwerre","Facility_I":4,"Name_of_Fa":"MPHC Igwuruta Omunwei","Longitude":7.0213768,"Latitude":4.9758831,"Facility_T":3,"Facility_d":"Model Primary HealtHCentre (MPHC)","LGA_count":10,"label":"IK10 - MPHC IGWURUTA OMUNWEI","newlabel":""}},
{"type":"Feature","geometry":{"type":"Point","coordinates":[6.890409200000022,5.059110100000055]},"properties":{"Field1":208,"LGA":"Ikwerre","Facility_I":14,"Name_of_Fa":"Ogbasara Omuanwa","Longitude":6.8904092,"Latitude":5.0591101,"Facility_T":2,"Facility_d":"HealtHClinic (PHC)","LGA_count":11,"label":"IK11 - OGBASARA OMUANWA","newlabel":""}},
{"type":"Feature","geometry":{"type":"Point","coordinates":[6.864340900000059,5.201947100000041]},"properties":{"Field1":199,"LGA":"Ikwerre","Facility_I":5,"Name_of_Fa":"Omerelu","Longitude":6.8643409,"Latitude":5.2019471,"Facility_T":1,"Facility_d":"Health Post (HP)","LGA_count":12,"label":"IK12 - OMERELU","newlabel":""}},
{"type":"Feature","geometry":{"type":"Point","coordinates":[6.8866630000000555,5.065774000000033]},"properties":{"Field1":200,"LGA":"Ikwerre","Facility_I":6,"Name_of_Fa":"Omuanwa PHC","Longitude":6.886663,"Latitude":5.065774,"Facility_T":2,"Facility_d":"HealtHClinic (PHC)","LGA_count":13,"label":"IK13 - OMUANWA PHC","newlabel":""}},
{"type":"Feature","geometry":{"type":"Point","coordinates":[6.886531300000058,5.06572570000003]},"properties":{"Field1":202,"LGA":"Ikwerre","Facility_I":8,"Name_of_Fa":"Omueze  Omuanwa PHC","Longitude":6.8865313,"Latitude":5.0657257,"Facility_T":2,"Facility_d":"HealtHClinic (PHC)","LGA_count":14,"label":"IK14 - OMUEZE  OMUANWA PHC","newlabel":""}},
{"type":"Feature","geometry":{"type":"Point","coordinates":[7.012995000000046,4.9540883000000235]},"properties":{"Field1":195,"LGA":"Ikwerre","Facility_I":1,"Name_of_Fa":"PHC Igwuruta Omuohia","Longitude":7.012995,"Latitude":4.9540883,"Facility_T":2,"Facility_d":"HealtHClinic (PHC)","LGA_count":15,"label":"IK15 - PHC IGWURUTA OMUOHIA","newlabel":""}},
{"type":"Feature","geometry":{"type":"Point","coordinates":[7.380526400000065,4.662625900000023]},"properties":{"Field1":213,"LGA":"Khana","Facility_I":4,"Name_of_Fa":"HP Beakogoro","Longitude":7.3805264,"Latitude":4.6626259,"Facility_T":1,"Facility_d":"Health Post (HP)","LGA_count":1,"label":"KH1 - HP BEAKOGORO","newlabel":""}},
{"type":"Feature","geometry":{"type":"Point","coordinates":[7.367149506245474,4.607238794240528]},"properties":{"Field1":222,"LGA":"Khana","Facility_I":13,"Name_of_Fa":"HP KAA","Longitude":7.368756,"Latitude":4.577696,"Facility_T":1,"Facility_d":"Health Post (HP)","LGA_count":2,"label":"KH2 - HP KAA","newlabel":""}},
{"type":"Feature","geometry":{"type":"Point","coordinates":[7.427287000000035,4.638152000000048]},"properties":{"Field1":214,"LGA":"Khana","Facility_I":5,"Name_of_Fa":"Hp Kaani1","Longitude":7.427287,"Latitude":4.638152,"Facility_T":1,"Facility_d":"Health Post (HP)","LGA_count":3,"label":"KH3 - HP KAANI1","newlabel":""}},
{"type":"Feature","geometry":{"type":"Point","coordinates":[7.4044830000000275,4.689770000000067]},"properties":{"Field1":219,"LGA":"Khana","Facility_I":10,"Name_of_Fa":"HP Kpong","Longitude":7.404483,"Latitude":4.68977,"Facility_T":1,"Facility_d":"Health Post (HP)","LGA_count":4,"label":"KH4 - HP KPONG","newlabel":""}},
{"type":"Feature","geometry":{"type":"Point","coordinates":[7.436552351956688,4.791572507753038]},"properties":{"Field1":224,"LGA":"Khana","Facility_I":15,"Name_of_Fa":"HP LORRE","Longitude":7.433548,"Latitude":4.805259,"Facility_T":1,"Facility_d":"Health Post (HP)","LGA_count":5,"label":"KH5 - HP LORRE","newlabel":""}},
{"type":"Feature","geometry":{"type":"Point","coordinates":[7.434139000000073,4.751997000000074]},"properties":{"Field1":232,"LGA":"Khana","Facility_I":23,"Name_of_Fa":"HP LUEKU","Longitude":7.434139,"Latitude":4.751997,"Facility_T":1,"Facility_d":"Health Post (HP)","LGA_count":6,"label":"KH6 - HP LUEKU","newlabel":""}},
{"type":"Feature","geometry":{"type":"Point","coordinates":[7.4747690000000375,4.756199000000038]},"properties":{"Field1":231,"LGA":"Khana","Facility_I":22,"Name_of_Fa":"HP YAE","Longitude":7.474769,"Latitude":4.756199,"Facility_T":1,"Facility_d":"Health Post (HP)","LGA_count":7,"label":"KH7 - HP YAE","newlabel":""}},
{"type":"Feature","geometry":{"type":"Point","coordinates":[7.359176000000048,4.7497110000000475]},"properties":{"Field1":216,"LGA":"Khana","Facility_I":7,"Name_of_Fa":"HP Zor Sogho","Longitude":7.359176,"Latitude":4.749711,"Facility_T":1,"Facility_d":"Health Post (HP)","LGA_count":8,"label":"KH8 - HP ZOR SOGHO","newlabel":""}},
{"type":"Feature","geometry":{"type":"Point","coordinates":[7.501844000000062,4.646641000000045]},"properties":{"Field1":235,"LGA":"Khana","Facility_I":26,"Name_of_Fa":"MPHC Bane","Longitude":7.501844,"Latitude":4.646641,"Facility_T":3,"Facility_d":"Model Primary HealtHCentre (MPHC)","LGA_count":9,"label":"KH9 - MPHC BANE","newlabel":""}},
{"type":"Feature","geometry":{"type":"Point","coordinates":[7.372083500000031,4.675218100000052]},"properties":{"Field1":210,"LGA":"Khana","Facility_I":1,"Name_of_Fa":"MPHC Bori","Longitude":7.3720835,"Latitude":4.6752181,"Facility_T":3,"Facility_d":"Model Primary HealtHCentre (MPHC)","LGA_count":10,"label":"KH10 - MPHC BORI","newlabel":""}},
{"type":"Feature","geometry":{"type":"Point","coordinates":[7.427824000000044,4.635857000000044]},"properties":{"Field1":220,"LGA":"Khana","Facility_I":11,"Name_of_Fa":"MPHC Kaani Babbe","Longitude":7.427824,"Latitude":4.635857,"Facility_T":3,"Facility_d":"Model Primary HealtHCentre (MPHC)","LGA_count":11,"label":"KH11 - MPHC KAANI BABBE","newlabel":""}},
{"type":"Feature","geometry":{"type":"Point","coordinates":[7.457295000000045,4.613138000000049]},"properties":{"Field1":212,"LGA":"Khana","Facility_I":3,"Name_of_Fa":"MPHC Kpean","Longitude":7.457295,"Latitude":4.613138,"Facility_T":3,"Facility_d":"Model Primary HealtHCentre (MPHC)","LGA_count":12,"label":"KH12 - MPHC KPEAN","newlabel":""}},
{"type":"Feature","geometry":{"type":"Point","coordinates":[7.376402100000064,4.6743598000000475]},"properties":{"Field1":229,"LGA":"Khana","Facility_I":20,"Name_of_Fa":"MPHC Luawii","Longitude":7.3764021,"Latitude":4.6743598,"Facility_T":3,"Facility_d":"Model Primary HealtHCentre (MPHC)","LGA_count":13,"label":"KH13 - MPHC LUAWII","newlabel":""}},
{"type":"Feature","geometry":{"type":"Point","coordinates":[7.489111000000037,4.721716000000072]},"properties":{"Field1":221,"LGA":"Khana","Facility_I":12,"Name_of_Fa":"MPHC Luumene","Longitude":7.489111,"Latitude":4.721716,"Facility_T":3,"Facility_d":"Model Primary HealtHCentre (MPHC)","LGA_count":14,"label":"KH14 - MPHC LUUMENE","newlabel":""}},
{"type":"Feature","geometry":{"type":"Point","coordinates":[7.424986000000047,4.689280000000053]},"properties":{"Field1":234,"LGA":"Khana","Facility_I":25,"Name_of_Fa":"MPHC Nyorgor","Longitude":7.424986,"Latitude":4.68928,"Facility_T":3,"Facility_d":"Model Primary HealtHCentre (MPHC)","LGA_count":15,"label":"KH15 - MPHC NYORGOR","newlabel":""}},
{"type":"Feature","geometry":{"type":"Point","coordinates":[7.391905000000065,4.789642000000072]},"properties":{"Field1":233,"LGA":"Khana","Facility_I":24,"Name_of_Fa":"MPHC Okwale","Longitude":7.391905,"Latitude":4.789642,"Facility_T":3,"Facility_d":"Model Primary HealtHCentre (MPHC)","LGA_count":16,"label":"KH16 - MPHC OKWALE","newlabel":""}},
{"type":"Feature","geometry":{"type":"Point","coordinates":[7.513381000000038,4.696240000000046]},"properties":{"Field1":223,"LGA":"Khana","Facility_I":14,"Name_of_Fa":"MPHC OPUOKO","Longitude":7.513381,"Latitude":4.69624,"Facility_T":2,"Facility_d":"HealtHClinic (PHC)","LGA_count":17,"label":"KH17 - MPHC OPUOKO","newlabel":""}},
{"type":"Feature","geometry":{"type":"Point","coordinates":[7.424764000000039,4.73432200000002]},"properties":{"Field1":236,"LGA":"Khana","Facility_I":27,"Name_of_Fa":"MPHC Taabaa","Longitude":7.424764,"Latitude":4.734322,"Facility_T":3,"Facility_d":"Model Primary HealtHCentre (MPHC)","LGA_count":18,"label":"KH18 - MPHC TAABAA","newlabel":""}},
{"type":"Feature","geometry":{"type":"Point","coordinates":[7.416645000000074,4.666854000000058]},"properties":{"Field1":218,"LGA":"Khana","Facility_I":9,"Name_of_Fa":"MPHC Wiyaakara","Longitude":7.416645,"Latitude":4.666854,"Facility_T":3,"Facility_d":"Model Primary HealtHCentre (MPHC)","LGA_count":19,"label":"KH19 - MPHC WIYAAKARA","newlabel":""}},
{"type":"Feature","geometry":{"type":"Point","coordinates":[7.37912300000005,4.6745149000000765]},"properties":{"Field1":230,"LGA":"Khana","Facility_I":21,"Name_of_Fa":"PHC Betam","Longitude":7.379123,"Latitude":4.6745149,"Facility_T":1,"Facility_d":"Health Post (HP)","LGA_count":20,"label":"KH20 - PHC BETAM","newlabel":""}},
{"type":"Feature","geometry":{"type":"Point","coordinates":[7.403959000000043,4.611121000000026]},"properties":{"Field1":226,"LGA":"Khana","Facility_I":17,"Name_of_Fa":"PHC Gwara","Longitude":7.403959,"Latitude":4.611121,"Facility_T":2,"Facility_d":"HealtHClinic (PHC)","LGA_count":21,"label":"KH21 - PHC GWARA","newlabel":""}},
{"type":"Feature","geometry":{"type":"Point","coordinates":[7.428012000000024,4.642391000000032]},"properties":{"Field1":215,"LGA":"Khana","Facility_I":6,"Name_of_Fa":"PHC Kaani 2","Longitude":7.428012,"Latitude":4.642391,"Facility_T":1,"Facility_d":"Health Post (HP)","LGA_count":22,"label":"KH22 - PHC KAANI 2","newlabel":""}},
{"type":"Feature","geometry":{"type":"Point","coordinates":[7.515305000000069,4.734567000000027]},"properties":{"Field1":227,"LGA":"Khana","Facility_I":18,"Name_of_Fa":"PHC Kabangha","Longitude":7.515305,"Latitude":4.734567,"Facility_T":1,"Facility_d":"Health Post (HP)","LGA_count":23,"label":"KH23 - PHC KABANGHA","newlabel":""}},
{"type":"Feature","geometry":{"type":"Point","coordinates":[7.477427000000034,4.623021000000051]},"properties":{"Field1":211,"LGA":"Khana","Facility_I":2,"Name_of_Fa":"PHC KWAWA","Longitude":7.477427,"Latitude":4.623021,"Facility_T":2,"Facility_d":"HealtHClinic (PHC)","LGA_count":24,"label":"KH24 - PHC KWAWA","newlabel":""}},
{"type":"Feature","geometry":{"type":"Point","coordinates":[7.418157000000065,4.80150500000002]},"properties":{"Field1":225,"LGA":"Khana","Facility_I":16,"Name_of_Fa":"PHC LUEBE","Longitude":7.418157,"Latitude":4.801505,"Facility_T":1,"Facility_d":"Health Post (HP)","LGA_count":25,"label":"KH25 - PHC LUEBE","newlabel":""}},
{"type":"Feature","geometry":{"type":"Point","coordinates":[7.38199000000003,4.757539000000065]},"properties":{"Field1":217,"LGA":"Khana","Facility_I":8,"Name_of_Fa":"PHC Teka Sogho","Longitude":7.38199,"Latitude":4.757539,"Facility_T":1,"Facility_d":"Health Post (HP)","LGA_count":26,"label":"KH26 - PHC TEKA SOGHO","newlabel":""}},
{"type":"Feature","geometry":{"type":"Point","coordinates":[7.359657000000027,4.640272000000039]},"properties":{"Field1":228,"LGA":"Khana","Facility_I":19,"Name_of_Fa":"PHC Uegwere Bo-ue","Longitude":7.359657,"Latitude":4.640272,"Facility_T":2,"Facility_d":"HealtHClinic (PHC)","LGA_count":27,"label":"KH27 - PHC UEGWERE BO-UE","newlabel":""}},
{"type":"Feature","geometry":{"type":"Point","coordinates":[7.074216000000035,4.824538000000075]},"properties":{"Field1":255,"LGA":"Obio/Akpor","Facility_I":19,"Name_of_Fa":"FSP Elelenwo","Longitude":7.074216,"Latitude":4.824538,"Facility_T":2,"Facility_d":"HealtHClinic (PHC)","LGA_count":1,"label":"OB1 - FSP ELELENWO","newlabel":""}},
{"type":"Feature","geometry":{"type":"Point","coordinates":[6.968377744602644,4.821583410794895]},"properties":{"Field1":251,"LGA":"Obio/Akpor","Facility_I":15,"Name_of_Fa":"Mgbuoshimini MPHC","Longitude":6.9756416,"Latitude":4.8070557,"Facility_T":3,"Facility_d":"Model Primary HealtHCentre (MPHC)","LGA_count":2,"label":"OB2 - MGBUOSHIMINI MPHC","newlabel":""}},
{"type":"Feature","geometry":{"type":"Point","coordinates":[7.071774900000037,4.830377500000054]},"properties":{"Field1":243,"LGA":"Obio/Akpor","Facility_I":7,"Name_of_Fa":"MPHC Elelenwo","Longitude":7.0717749,"Latitude":4.8303775,"Facility_T":3,"Facility_d":"Model Primary HealtHCentre (MPHC)","LGA_count":3,"label":"OB3 - MPHC ELELENWO","newlabel":""}},
{"type":"Feature","geometry":{"type":"Point","coordinates":[7.11403770000004,4.8761195000000725]},"properties":{"Field1":238,"LGA":"Obio/Akpor","Facility_I":2,"Name_of_Fa":"MPHC Iriebe","Longitude":7.1140377,"Latitude":4.8761195,"Facility_T":3,"Facility_d":"Model Primary HealtHCentre (MPHC)","LGA_count":4,"label":"OB4 - MPHC IRIEBE","newlabel":"OB4"}},
{"type":"Feature","geometry":{"type":"Point","coordinates":[7.05631980000004,4.853378500000076]},"properties":{"Field1":237,"LGA":"Obio/Akpor","Facility_I":1,"Name_of_Fa":"MPHC Rumukurusi","Longitude":7.0563198,"Latitude":4.8533785,"Facility_T":3,"Facility_d":"Model Primary HealtHCentre (MPHC)","LGA_count":5,"label":"OB5 - MPHC RUMUKURUSI","newlabel":""}},
{"type":"Feature","geometry":{"type":"Point","coordinates":[6.9567652000000635,4.808196500000065]},"properties":{"Field1":245,"LGA":"Obio/Akpor","Facility_I":9,"Name_of_Fa":"MPHC Rumuolumeni","Longitude":6.9567652,"Latitude":4.8081965,"Facility_T":3,"Facility_d":"Model Primary HealtHCentre (MPHC)","LGA_count":6,"label":"OB6 - MPHC RUMUOLUMENI","newlabel":""}},
{"type":"Feature","geometry":{"type":"Point","coordinates":[6.981947000000048,4.864599000000055]},"properties":{"Field1":256,"LGA":"Obio/Akpor","Facility_I":20,"Name_of_Fa":"Nkpolu-Rumuigbo PHC","Longitude":6.981947,"Latitude":4.864599,"Facility_T":2,"Facility_d":"HealtHClinic (PHC)","LGA_count":7,"label":"OB7 - NKPOLU-RUMUIGBO PHC","newlabel":""}},
{"type":"Feature","geometry":{"type":"Point","coordinates":[7.033699500000068,4.833925400000055]},"properties":{"Field1":244,"LGA":"Obio/Akpor","Facility_I":8,"Name_of_Fa":"Obio Cottage Hospital","Longitude":7.0336995,"Latitude":4.8339254,"Facility_T":3,"Facility_d":"Model Primary HealtHCentre (MPHC)","LGA_count":8,"label":"OB8 - OBIO COTTAGE HOSPITAL","newlabel":""}},
{"type":"Feature","geometry":{"type":"Point","coordinates":[7.039016000000061,4.828407000000027]},"properties":{"Field1":257,"LGA":"Obio/Akpor","Facility_I":21,"Name_of_Fa":"Oginigba","Longitude":7.039016,"Latitude":4.828407,"Facility_T":1,"Facility_d":"Health Post (HP)","LGA_count":9,"label":"OB9 - OGINIGBA","newlabel":""}},
{"type":"Feature","geometry":{"type":"Point","coordinates":[7.02251300000006,4.869106100000067]},"properties":{"Field1":240,"LGA":"Obio/Akpor","Facility_I":4,"Name_of_Fa":"PHC Eliozu","Longitude":7.022513,"Latitude":4.8691061,"Facility_T":3,"Facility_d":"Model Primary HealtHCentre (MPHC)","LGA_count":10,"label":"OB10 - PHC ELIOZU","newlabel":""}},
{"type":"Feature","geometry":{"type":"Point","coordinates":[7.041468900000041,4.894809700000053]},"properties":{"Field1":239,"LGA":"Obio/Akpor","Facility_I":3,"Name_of_Fa":"PHC Eneka","Longitude":7.0414689,"Latitude":4.8948097,"Facility_T":3,"Facility_d":"Model Primary HealtHCentre (MPHC)","LGA_count":11,"label":"OB11 - PHC ENEKA","newlabel":""}},
{"type":"Feature","geometry":{"type":"Point","coordinates":[6.928751000000034,4.87125530000003]},"properties":{"Field1":246,"LGA":"Obio/Akpor","Facility_I":10,"Name_of_Fa":"PHC Ozuoba","Longitude":6.928751,"Latitude":4.8712553,"Facility_T":3,"Facility_d":"Model Primary HealtHCentre (MPHC)","LGA_count":12,"label":"OB12 - PHC OZUOBA","newlabel":""}},
{"type":"Feature","geometry":{"type":"Point","coordinates":[6.991706800000031,4.89968650000003]},"properties":{"Field1":241,"LGA":"Obio/Akpor","Facility_I":5,"Name_of_Fa":"PHC Rukpoku","Longitude":6.9917068,"Latitude":4.8996865,"Facility_T":3,"Facility_d":"Model Primary HealtHCentre (MPHC)","LGA_count":13,"label":"OB13 - PHC RUKPOKU","newlabel":""}},
{"type":"Feature","geometry":{"type":"Point","coordinates":[7.051314765122923,4.820088746758118]},"properties":{"Field1":242,"LGA":"Obio/Akpor","Facility_I":6,"Name_of_Fa":"PHC Woji","Longitude":7.0488536,"Latitude":4.8149203,"Facility_T":3,"Facility_d":"Model Primary HealtHCentre (MPHC)","LGA_count":14,"label":"OB14 - PHC WOJI","newlabel":""}},
{"type":"Feature","geometry":{"type":"Point","coordinates":[6.990408638985963,4.879103683115978]},"properties":{"Field1":254,"LGA":"Obio/Akpor","Facility_I":18,"Name_of_Fa":"Rumuagholu MPHC","Longitude":6.9817294,"Latitude":4.8794375,"Facility_T":1,"Facility_d":"Health Post (HP)","LGA_count":15,"label":"OB15 - RUMUAGHOLU MPHC","newlabel":""}},
{"type":"Feature","geometry":{"type":"Point","coordinates":[6.938433800000041,4.890214600000036]},"properties":{"Field1":253,"LGA":"Obio/Akpor","Facility_I":17,"Name_of_Fa":"Rumuekini PHC","Longitude":6.9384338,"Latitude":4.8902146,"Facility_T":2,"Facility_d":"HealtHClinic (PHC)","LGA_count":16,"label":"OB16 - RUMUEKINI PHC","newlabel":""}},
{"type":"Feature","geometry":{"type":"Point","coordinates":[6.983581500000071,4.819870900000069]},"properties":{"Field1":250,"LGA":"Obio/Akpor","Facility_I":14,"Name_of_Fa":"Rumueme MPHC","Longitude":6.9835815,"Latitude":4.8198709,"Facility_T":3,"Facility_d":"Model Primary HealtHCentre (MPHC)","LGA_count":17,"label":"OB17 - RUMUEME MPHC","newlabel":""}},
{"type":"Feature","geometry":{"type":"Point","coordinates":[6.986852200000044,4.834308200000066]},"properties":{"Field1":248,"LGA":"Obio/Akpor","Facility_I":12,"Name_of_Fa":"Rumuepirikom  MPHC","Longitude":6.9868522,"Latitude":4.8343082,"Facility_T":3,"Facility_d":"Model Primary HealtHCentre (MPHC)","LGA_count":18,"label":"OB18 - RUMUEPIRIKOM  MPHC","newlabel":""}},
{"type":"Feature","geometry":{"type":"Point","coordinates":[6.990852400000051,4.849784300000067]},"properties":{"Field1":249,"LGA":"Obio/Akpor","Facility_I":13,"Name_of_Fa":"Rumuigbo MPHC","Longitude":6.9908524,"Latitude":4.8497843,"Facility_T":3,"Facility_d":"Model Primary HealtHCentre (MPHC)","LGA_count":19,"label":"OB19 - RUMUIGBO MPHC","newlabel":""}},
{"type":"Feature","geometry":{"type":"Point","coordinates":[6.998964600000022,4.874765100000047]},"properties":{"Field1":247,"LGA":"Obio/Akpor","Facility_I":11,"Name_of_Fa":"Rumuodomaya MPHC","Longitude":6.9989646,"Latitude":4.8747651,"Facility_T":3,"Facility_d":"Model Primary HealtHCentre (MPHC)","LGA_count":20,"label":"OB20 - RUMUODOMAYA MPHC","newlabel":""}},
{"type":"Feature","geometry":{"type":"Point","coordinates":[6.984085400000026,4.8380679000000555]},"properties":{"Field1":252,"LGA":"Obio/Akpor","Facility_I":16,"Name_of_Fa":"Rumuokwuta PHC","Longitude":6.9840854,"Latitude":4.8380679,"Facility_T":1,"Facility_d":"Health Post (HP)","LGA_count":21,"label":"OB21 - RUMUOKWUTA PHC","newlabel":""}},
{"type":"Feature","geometry":{"type":"Point","coordinates":[7.219929000000036,4.668170000000032]},"properties":{"Field1":264,"LGA":"Ogu/bolo","Facility_I":7,"Name_of_Fa":"CHC BOLO","Longitude":7.219929,"Latitude":4.66817,"Facility_T":2,"Facility_d":"HealtHClinic (PHC)","LGA_count":1,"label":"OG1 - CHC BOLO","newlabel":""}},
{"type":"Feature","geometry":{"type":"Point","coordinates":[7.186219245321321,4.713545887161182]},"properties":{"Field1":258,"LGA":"Ogu/bolo","Facility_I":1,"Name_of_Fa":"Chuku Ama","Longitude":7.1964741,"Latitude":4.7314577,"Facility_T":1,"Facility_d":"Health Post (HP)","LGA_count":2,"label":"OG2 - CHUKU AMA","newlabel":""}},
{"type":"Feature","geometry":{"type":"Point","coordinates":[7.161721000000057,4.689593000000059]},"properties":{"Field1":262,"LGA":"Ogu/bolo","Facility_I":5,"Name_of_Fa":"Ele HP","Longitude":7.161721,"Latitude":4.689593,"Facility_T":1,"Facility_d":"Health Post (HP)","LGA_count":3,"label":"OG3 - ELE HP","newlabel":""}},
{"type":"Feature","geometry":{"type":"Point","coordinates":[7.153699000000074,4.657605000000046]},"properties":{"Field1":263,"LGA":"Ogu/bolo","Facility_I":6,"Name_of_Fa":"HP Owuogono","Longitude":7.153699,"Latitude":4.657605,"Facility_T":1,"Facility_d":"Health Post (HP)","LGA_count":4,"label":"OG4 - HP OWUOGONO","newlabel":""}},
{"type":"Feature","geometry":{"type":"Point","coordinates":[7.179002300000036,4.694067200000063]},"properties":{"Field1":260,"LGA":"Ogu/bolo","Facility_I":3,"Name_of_Fa":"Ikpoama PHC","Longitude":7.1790023,"Latitude":4.6940672,"Facility_T":1,"Facility_d":"Health Post (HP)","LGA_count":5,"label":"OG5 - IKPOAMA PHC","newlabel":""}},
{"type":"Feature","geometry":{"type":"Point","coordinates":[7.193094948043414,4.6984078349990295]},"properties":{"Field1":259,"LGA":"Ogu/bolo","Facility_I":2,"Name_of_Fa":"OGU MPHC","Longitude":7.1960993,"Latitude":4.7214412,"Facility_T":3,"Facility_d":"Model Primary HealtHCentre (MPHC)","LGA_count":6,"label":"OG6 - OGU MPHC","newlabel":""}},
{"type":"Feature","geometry":{"type":"Point","coordinates":[7.174961000000053,4.691996000000074]},"properties":{"Field1":261,"LGA":"Ogu/bolo","Facility_I":4,"Name_of_Fa":"Opuama PHC","Longitude":7.174961,"Latitude":4.691996,"Facility_T":1,"Facility_d":"Health Post (HP)","LGA_count":7,"label":"OG7 - OPUAMA PHC","newlabel":""}},
{"type":"Feature","geometry":{"type":"Point","coordinates":[7.203757254491943,4.67207328304234]},"properties":{"Field1":265,"LGA":"Ogu/bolo","Facility_I":8,"Name_of_Fa":"Wakama HP","Longitude":7.222451,"Latitude":4.698111,"Facility_T":1,"Facility_d":"Health Post (HP)","LGA_count":8,"label":"OG8 - WAKAMA HP","newlabel":""}},
{"type":"Feature","geometry":{"type":"Point","coordinates":[7.087807600000076,4.739735400000029]},"properties":{"Field1":276,"LGA":"Okrika","Facility_I":11,"Name_of_Fa":"Anyungubiri MPHC","Longitude":7.0878076,"Latitude":4.7397354,"Facility_T":3,"Facility_d":"Model Primary HealtHCentre (MPHC)","LGA_count":1,"label":"OK1 - ANYUNGUBIRI MPHC","newlabel":""}},
{"type":"Feature","geometry":{"type":"Point","coordinates":[7.077246100000025,4.743413700000076]},"properties":{"Field1":270,"LGA":"Okrika","Facility_I":5,"Name_of_Fa":"IBAKA MPHC","Longitude":7.0772461,"Latitude":4.7434137,"Facility_T":3,"Facility_d":"Model Primary HealtHCentre (MPHC)","LGA_count":2,"label":"OK2 - IBAKA MPHC","newlabel":""}},
{"type":"Feature","geometry":{"type":"Point","coordinates":[7.0005818802609525,4.712568873172809]},"properties":{"Field1":279,"LGA":"Okrika","Facility_I":14,"Name_of_Fa":"ISAKA PHC","Longitude":7.0001813,"Latitude":4.7384063,"Facility_T":2,"Facility_d":"HealtHClinic (PHC)","LGA_count":3,"label":"OK3 - ISAKA PHC","newlabel":""}},
{"type":"Feature","geometry":{"type":"Point","coordinates":[7.0844375000000355,4.741990100000066]},"properties":{"Field1":272,"LGA":"Okrika","Facility_I":7,"Name_of_Fa":"Island Maternity Fiberesima","Longitude":7.0844375,"Latitude":4.7419901,"Facility_T":3,"Facility_d":"Model Primary HealtHCentre (MPHC)","LGA_count":4,"label":"OK4 - ISLAND MATERNITY FIBERESIMA","newlabel":""}},
{"type":"Feature","geometry":{"type":"Point","coordinates":[7.099685000000022,4.748257700000067]},"properties":{"Field1":267,"LGA":"Okrika","Facility_I":2,"Name_of_Fa":"IWC, Zonal hospital","Longitude":7.099685,"Latitude":4.7482577,"Facility_T":1,"Facility_d":"Health Post (HP)","LGA_count":5,"label":"OK5 - IWC, ZONAL HOSPITAL","newlabel":""}},
{"type":"Feature","geometry":{"type":"Point","coordinates":[7.077597200000071,4.776807800000029]},"properties":{"Field1":274,"LGA":"Okrika","Facility_I":9,"Name_of_Fa":"OBA AMA PHC","Longitude":7.0775972,"Latitude":4.7768078,"Facility_T":2,"Facility_d":"HealtHClinic (PHC)","LGA_count":6,"label":"OK6 - OBA AMA PHC","newlabel":""}},
{"type":"Feature","geometry":{"type":"Point","coordinates":[7.066198200000031,4.651225500000066]},"properties":{"Field1":278,"LGA":"Okrika","Facility_I":13,"Name_of_Fa":"OFIOMINA AMA PHC","Longitude":7.0661982,"Latitude":4.6512255,"Facility_T":2,"Facility_d":"HealtHClinic (PHC)","LGA_count":7,"label":"OK7 - OFIOMINA AMA PHC","newlabel":""}},
{"type":"Feature","geometry":{"type":"Point","coordinates":[7.092430700000023,4.753993200000025]},"properties":{"Field1":269,"LGA":"Okrika","Facility_I":4,"Name_of_Fa":"OGAN AMA PHC","Longitude":7.0924307,"Latitude":4.7539932,"Facility_T":3,"Facility_d":"Model Primary HealtHCentre (MPHC)","LGA_count":8,"label":"OK8 - OGAN AMA PHC","newlabel":""}},
{"type":"Feature","geometry":{"type":"Point","coordinates":[7.081057100000066,4.746370600000034]},"properties":{"Field1":271,"LGA":"Okrika","Facility_I":6,"Name_of_Fa":"Ogbogbo PHC","Longitude":7.0810571,"Latitude":4.7463706,"Facility_T":2,"Facility_d":"HealtHClinic (PHC)","LGA_count":9,"label":"OK9 - OGBOGBO PHC","newlabel":""}},
{"type":"Feature","geometry":{"type":"Point","coordinates":[7.084805000000074,4.736336300000062]},"properties":{"Field1":266,"LGA":"Okrika","Facility_I":1,"Name_of_Fa":"OGOLOMA PHC","Longitude":7.084805,"Latitude":4.7363363,"Facility_T":2,"Facility_d":"HealtHClinic (PHC)","LGA_count":10,"label":"OK10 - OGOLOMA PHC","newlabel":""}},
{"type":"Feature","geometry":{"type":"Point","coordinates":[7.1050771740980965,4.7194316622251575]},"properties":{"Field1":268,"LGA":"Okrika","Facility_I":3,"Name_of_Fa":"Okochiri MPHC","Longitude":7.1161866,"Latitude":4.7405823,"Facility_T":3,"Facility_d":"Model Primary HealtHCentre (MPHC)","LGA_count":11,"label":"OK11 - OKOCHIRI MPHC","newlabel":""}},
{"type":"Feature","geometry":{"type":"Point","coordinates":[7.0696230000000355,4.792886000000067]},"properties":{"Field1":275,"LGA":"Okrika","Facility_I":10,"Name_of_Fa":"Okujagu Ama PHC","Longitude":7.069623,"Latitude":4.792886,"Facility_T":2,"Facility_d":"HealtHClinic (PHC)","LGA_count":12,"label":"OK12 - OKUJAGU AMA PHC","newlabel":""}},
{"type":"Feature","geometry":{"type":"Point","coordinates":[7.078514000000041,4.774575000000027]},"properties":{"Field1":280,"LGA":"Okrika","Facility_I":15,"Name_of_Fa":"PHC Abam","Longitude":7.078514,"Latitude":4.774575,"Facility_T":2,"Facility_d":"HealtHClinic (PHC)","LGA_count":13,"label":"OK13 - PHC ABAM","newlabel":""}},
{"type":"Feature","geometry":{"type":"Point","coordinates":[7.0752679000000285,4.756441000000052]},"properties":{"Field1":277,"LGA":"Okrika","Facility_I":12,"Name_of_Fa":"PHC George Ama","Longitude":7.0752679,"Latitude":4.756441,"Facility_T":2,"Facility_d":"HealtHClinic (PHC)","LGA_count":14,"label":"OK14 - PHC GEORGE AMA","newlabel":""}},
{"type":"Feature","geometry":{"type":"Point","coordinates":[7.071503000000064,4.760972500000037]},"properties":{"Field1":273,"LGA":"Okrika","Facility_I":8,"Name_of_Fa":"PHC Kalio Ama","Longitude":7.071503,"Latitude":4.7609725,"Facility_T":2,"Facility_d":"HealtHClinic (PHC)","LGA_count":15,"label":"OK15 - PHC KALIO AMA","newlabel":""}},
{"type":"Feature","geometry":{"type":"Point","coordinates":[7.229049900000064,5.0936521000000425]},"properties":{"Field1":283,"LGA":"Omuma","Facility_I":3,"Name_of_Fa":"Eberi PHC","Longitude":7.2290499,"Latitude":5.0936521,"Facility_T":2,"Facility_d":"HealtHClinic (PHC)","LGA_count":1,"label":"OM1 - EBERI PHC","newlabel":""}},
{"type":"Feature","geometry":{"type":"Point","coordinates":[7.2782680000000255,5.126715300000058]},"properties":{"Field1":284,"LGA":"Omuma","Facility_I":4,"Name_of_Fa":"Obioha MPHC","Longitude":7.278268,"Latitude":5.1267153,"Facility_T":3,"Facility_d":"Model Primary HealtHCentre (MPHC)","LGA_count":2,"label":"OM2 - OBIOHA MPHC","newlabel":""}},
{"type":"Feature","geometry":{"type":"Point","coordinates":[7.215755142033554,5.181206264830293]},"properties":{"Field1":281,"LGA":"Omuma","Facility_I":1,"Name_of_Fa":"Ofeh PHC","Longitude":7.2411826,"Latitude":5.1983209,"Facility_T":2,"Facility_d":"HealtHClinic (PHC)","LGA_count":3,"label":"OM3 - OFEH PHC","newlabel":""}},
{"type":"Feature","geometry":{"type":"Point","coordinates":[7.2782680000000255,5.126715300000058]},"properties":{"Field1":285,"LGA":"Omuma","Facility_I":5,"Name_of_Fa":"Ohim- oyoro PHC","Longitude":7.278268,"Latitude":5.1267153,"Facility_T":1,"Facility_d":"Health Post (HP)","LGA_count":4,"label":"OM4 - OHIM- OYORO PHC","newlabel":""}},
{"type":"Feature","geometry":{"type":"Point","coordinates":[7.241519600000061,5.13942110000005]},"properties":{"Field1":282,"LGA":"Omuma","Facility_I":2,"Name_of_Fa":"Oyoro model","Longitude":7.2415196,"Latitude":5.1394211,"Facility_T":2,"Facility_d":"HealtHClinic (PHC)","LGA_count":5,"label":"OM5 - OYORO MODEL","newlabel":""}},
{"type":"Feature","geometry":{"type":"Point","coordinates":[7.208988100000056,5.017208200000027]},"properties":{"Field1":289,"LGA":"Omuma","Facility_I":9,"Name_of_Fa":"UMUAJULOKE PHC","Longitude":7.2089881,"Latitude":5.0172082,"Facility_T":2,"Facility_d":"HealtHClinic (PHC)","LGA_count":6,"label":"OM6 - UMUAJULOKE PHC","newlabel":""}},
{"type":"Feature","geometry":{"type":"Point","coordinates":[7.198391100000038,5.099813200000028]},"properties":{"Field1":286,"LGA":"Omuma","Facility_I":6,"Name_of_Fa":"Umuelechi HP","Longitude":7.1983911,"Latitude":5.0998132,"Facility_T":1,"Facility_d":"Health Post (HP)","LGA_count":7,"label":"OM7 - UMUELECHI HP","newlabel":""}},
{"type":"Feature","geometry":{"type":"Point","coordinates":[7.223321400000032,5.046551500000021]},"properties":{"Field1":288,"LGA":"Omuma","Facility_I":8,"Name_of_Fa":"Umueze hp","Longitude":7.2233214,"Latitude":5.0465515,"Facility_T":1,"Facility_d":"Health Post (HP)","LGA_count":8,"label":"OM8 - UMUEZE HP","newlabel":""}},
{"type":"Feature","geometry":{"type":"Point","coordinates":[7.229832500000043,5.056375900000035]},"properties":{"Field1":287,"LGA":"Omuma","Facility_I":7,"Name_of_Fa":"Umuogba PHC","Longitude":7.2298325,"Latitude":5.0563759,"Facility_T":1,"Facility_d":"Health Post (HP)","LGA_count":9,"label":"OM9 - UMUOGBA PHC","newlabel":""}},
{"type":"Feature","geometry":{"type":"Point","coordinates":[7.217256400000053,5.0282157000000325]},"properties":{"Field1":290,"LGA":"Omuma","Facility_I":10,"Name_of_Fa":"Umuokwa PHC","Longitude":7.2172564,"Latitude":5.0282157,"Facility_T":1,"Facility_d":"Health Post (HP)","LGA_count":10,"label":"OM10 - UMUOKWA PHC","newlabel":""}},
{"type":"Feature","geometry":{"type":"Point","coordinates":[6.733042443883899,5.441643208265168]},"properties":{"Field1":300,"LGA":"ONELGA","Facility_I":10,"Name_of_Fa":"Aggah HP","Longitude":6.7373153,"Latitude":5.4760397,"Facility_T":1,"Facility_d":"Health Post (HP)","LGA_count":1,"label":"ON1 - AGGAH HP","newlabel":""}},
{"type":"Feature","geometry":{"type":"Point","coordinates":[6.6811239000000455,5.274158000000057]},"properties":{"Field1":294,"LGA":"ONELGA","Facility_I":4,"Name_of_Fa":"AMAH PHC","Longitude":6.6811239,"Latitude":5.274158,"Facility_T":2,"Facility_d":"HealtHClinic (PHC)","LGA_count":2,"label":"ON2 - AMAH PHC","newlabel":""}},
{"type":"Feature","geometry":{"type":"Point","coordinates":[6.6636252000000695,5.1731097000000545]},"properties":{"Field1":291,"LGA":"ONELGA","Facility_I":1,"Name_of_Fa":"EREMA PHC","Longitude":6.6636252,"Latitude":5.1731097,"Facility_T":2,"Facility_d":"HealtHClinic (PHC)","LGA_count":3,"label":"ON3 - EREMA PHC","newlabel":""}},
{"type":"Feature","geometry":{"type":"Point","coordinates":[6.585553100000027,5.233881100000076]},"properties":{"Field1":303,"LGA":"ONELGA","Facility_I":13,"Name_of_Fa":"IDU OGBA HP","Longitude":6.5855531,"Latitude":5.2338811,"Facility_T":1,"Facility_d":"Health Post (HP)","LGA_count":4,"label":"ON4 - IDU OGBA HP","newlabel":""}},
{"type":"Feature","geometry":{"type":"Point","coordinates":[6.6282302000000755,5.6836523000000625]},